supermarket_name,supermarket_lat,supermarket_lng,block_house,street_name,unit_number,postcode
7SEVEN PTE. LTD.,1.45605972594988,103.786436916899,51,NORTH COAST AVENUE,3,756992
ABEDIN TRADING PTE. LTD.,1.31420654866153,103.886699759329,599,GEYLANG ROAD,1,389538
AJMAL SUPER MART PTE. LTD.,1.31396452002226,103.625764663231,70,TUAS SOUTH AVENUE 1,40,637285
AJMAL TRADE MART PTE. LTD.,1.40631204506347,103.76056171553,23,MANDAI ESTATE,21,729937
AJMAL TRADE MART PTE. LTD.,1.43069358938447,103.759237297885,12,KRANJI ROAD,,739522
AJMAL TRADING GROUP PTE. LTD.,1.46152554782754,103.809438952915,2,WOODLANDS SECTOR 2,5,737723
AJMAL TRADING GROUP PTE. LTD.,1.32210836314021,103.727480745718,5,JALAN PAPAN,32,619396
AL MARCHE PTE LTD,1.28076944309971,103.852658565645,2,MARINA BOULEVARD,5,18987
ALTERNATIVE SELECTION PTE. LTD.,1.33661474902075,103.786969223738,29,BINJAI PARK,,589831
ANG KEN CHUA,1.38062798479668,103.741520112804,410,CHOA CHU KANG AVENUE 3,341,680410
ANG MO SUPERMARKET PTE LTD,1.39946117297002,103.916054504161,639,PUNGGOL DRIVE,1,820639
ANG MO SUPERMARKET PTE LTD,1.37170342503995,103.879938988612,642,HOUGANG AVENUE 8,197,530642
AP HOUSE PTE. LTD.,1.27830730320321,103.850795182002,12,MARINA VIEW,6/8,18961
ARCHANA PROVISION STORES PTE. LTD,1.31923811377776,103.732882480415,27,PENJURU WALK,6/7,608538
ARCHANA SUPERMARKET PTE. LTD.,1.32048426082957,103.726722841969,1,JALAN PAPAN,29,619392
AZ SUPERMART PTE. LTD.,1.33809673913723,103.909946665207,21,KAKI BUKIT AVENUE 3,,415920
B & S MINI MART PTE. LTD.,1.31245104539871,103.87962231543,310,GEYLANG ROAD,,389349
BALASUBRAMANIYAN KANNADASAN,1.43594535916514,103.754008429832,257,KRANJI ROAD,,739503
BANGLADESH SUPER MARKET PTE. LTD.,1.45343693357051,103.832526372151,1024,SEMBAWANG ROAD,,758498
BHANDARI INTERNATIONAL PTE. LTD.,1.45132505304739,103.791095177079,280,WOODLANDS INDUSTRIAL PARK E5 (PART OF),47,757322
BISMILLAH MINIMART PTE. LTD.,1.40754324060913,103.758094978446,32,MANDAI ESTATE,2,729939
BLUEWATER SEAFOOD PTE. LTD.,1.30344597442988,103.80938167216,8D,DEMPSEY ROAD,1,249672
CAVEMEN PTE. LTD.,1.32696540868721,103.843674239785,1,JALAN DUSUN,9/10,329363
CHD @ SOON LEE PTE. LTD.,1.33212290136628,103.699070270739,51,SOON LEE ROAD,51A,628088
"CHEE MIN KUAN, SIMON",1.30373373435466,103.896498243508,342,TANJONG KATONG ROAD,,437112
CHENNAI TRADING & SUPERMART PTE. LTD.,1.32048426082957,103.726722841969,1,JALAN PAPAN,35,619392
CHUA & NG PTE. LTD.,1.33205094619271,103.914145078086,632,BEDOK RESERVOIR ROAD,824,470632
COLD STORAGE SINGAPORE (1983) PTE LTD,1.30484344487426,103.823852799187,163,TANGLIN ROAD,2/3,247933
COLD STORAGE SINGAPORE (1983) PTE LTD,1.32325040085144,103.767260053848,41,SUNSET WAY,01A,597071
COLD STORAGE SINGAPORE (1983) PTE LTD,1.30222178109552,103.876152670397,5,STADIUM WALK,1,397693
COLD STORAGE SINGAPORE (1983) PTE LTD,1.30982227398559,103.902232496984,291,JOO CHIAT ROAD,1,427543
COLD STORAGE SINGAPORE (1983) PTE LTD,1.3733212172841,103.886365538231,683,HOUGANG AVENUE 8,903,530683
COLD STORAGE SINGAPORE (1983) PTE LTD,1.32021101601675,103.843656771807,238,THOMSON ROAD,28/29,307683
COLD STORAGE SINGAPORE (1983) PTE LTD,1.3329587272309,103.914941831132,631,BEDOK RESERVOIR ROAD,954,470631
COLD STORAGE SINGAPORE (1983) PTE LTD,1.37264569542777,103.853890711284,525,ANG MO KIO AVENUE 10,2401,560525
COLD STORAGE SINGAPORE (1983) PTE LTD,1.43600783793646,103.785688733844,1,WOODLANDS SQUARE,31/32,738099
COLD STORAGE SINGAPORE (1983) PTE LTD,1.2886146910195,103.805009970565,370,ALEXANDRA ROAD,3/7,159953
COLD STORAGE SINGAPORE (1983) PTE LTD,1.43576080071655,103.836723882475,291,YISHUN STREET 22,389/3,760291
COLD STORAGE SINGAPORE (1983) PTE LTD,1.30119131472187,103.905113590458,80,MARINE PARADE ROAD,27/62,449269
COLD STORAGE SINGAPORE (1983) PTE LTD,1.31867575851382,103.892550605327,60,PAYA LEBAR ROAD,1/5,409051
COLD STORAGE SINGAPORE (1983) PTE LTD,1.35949663830554,103.885079928732,205,HOUGANG STREET 21,133,530205
COLD STORAGE SINGAPORE (1983) PTE LTD,1.30974242012866,103.864101650514,12,KALLANG AVENUE,47,339511
COLD STORAGE SINGAPORE (1983) PTE LTD,1.42969848150358,103.835776497586,930,YISHUN AVENUE 2,6/7,769098
COLD STORAGE SINGAPORE (1983) PTE LTD,1.29929406658312,103.787404060028,1,FUSIONOPOLIS WAY,3,138632
COLD STORAGE SINGAPORE (1983) PTE LTD,1.31469214115978,103.894480527876,11,TANJONG KATONG ROAD,36,437157
COLD STORAGE SINGAPORE (1983) PTE LTD,1.34922418771454,103.934912522809,829,TAMPINES STREET 81,284/8,520829
COLD STORAGE SINGAPORE (1983) PTE LTD,1.29380236091495,103.831757911005,1,KIM SENG PROMENADE,18/19,237994
COLD STORAGE SINGAPORE (1983) PTE LTD,1.29225958853816,103.842561031003,81,CLEMENCEAU AVENUE,18,239917
COLD STORAGE SINGAPORE (1983) PTE LTD,1.27737236043423,103.852844804264,5,STRAITS VIEW,15/16,18935
COLD STORAGE SINGAPORE (1983) PTE LTD,1.31943617521461,103.82734585139,383,BUKIT TIMAH ROAD,09A,259727
COLD STORAGE SINGAPORE (1983) PTE LTD,1.35067551423916,103.871861623795,23,SERANGOON CENTRAL,44/45,556083
COLD STORAGE SINGAPORE (1983) PTE LTD,1.34962234403109,103.849881701299,512,BISHAN STREET 13,524,570512
COLD STORAGE SINGAPORE (1983) PTE LTD,1.33177581668164,103.946201244496,430,UPPER CHANGI ROAD,47,487048
COLD STORAGE SINGAPORE (1983) PTE LTD,1.30372322367268,103.835240311923,290,ORCHARD ROAD,14/15,238859
COLD STORAGE SINGAPORE (1983) PTE LTD,1.43084006633623,103.793416332651,548,WOODLANDS DRIVE 44,37/38,730548
COLD STORAGE SINGAPORE (1983) PTE LTD,1.38529556248789,103.766170532015,524A,JELAPANG ROAD,13/18,671524
COLD STORAGE SINGAPORE (1983) PTE LTD,1.30014248326866,103.855786976518,230,VICTORIA STREET,16,188024
COLD STORAGE SINGAPORE (1983) PTE LTD,1.24775861864545,103.841921096861,31,OCEAN WAY,26/27,98375
COLD STORAGE SINGAPORE (1983) PTE LTD,1.30074756196423,103.845047628503,68,ORCHARD ROAD,15/16,238839
COLD STORAGE SINGAPORE (1983) PTE LTD,1.26389581950121,103.821589250415,1,HARBOURFRONT WALK,23,98585
COLD STORAGE SINGAPORE (1983) PTE LTD,1.35431556438279,103.94501945797,10,TAMPINES CENTRAL 1,1/2,529536
COLD STORAGE SINGAPORE (1983) PTE LTD,1.28022768611886,103.853349301911,8A,MARINA BOULEVARD,44-50,18984
COLD STORAGE SINGAPORE (1983) PTE LTD,1.30523472024853,103.905014934935,112,EAST COAST ROAD,12,428802
COLD STORAGE SINGAPORE (1983) PTE LTD,1.38739537368097,103.869135979297,1,SELETAR ROAD,11,807011
COLD STORAGE SINGAPORE (1983) PTE LTD,1.28692006435587,103.818673599932,86,REDHILL CLOSE,610,150086
COLD STORAGE SINGAPORE (1983) PTE LTD,1.33362232032979,103.8509778648,181,LORONG 4 TOA PAYOH,602,310181
COLD STORAGE SINGAPORE (1983) PTE LTD,1.36462540011123,103.847677043508,316B,ANG MO KIO STREET 31,11,563316
COLD STORAGE SINGAPORE (1983) PTE LTD,1.33081740177866,103.795692359115,1,FIFTH AVENUE,5,268802
COLD STORAGE SINGAPORE (1983) PTE LTD,1.28263437748971,103.825595755974,26,JALAN MEMBINA,7,161026
COLD STORAGE SINGAPORE (1983) PTE LTD,1.34159108250934,103.697020082225,638,JURONG WEST STREET 61,1,640638
COLD STORAGE SINGAPORE (1983) PTE LTD,1.45000861248809,103.81411090726,468B,ADMIRALTY DRIVE,29,752468
COLD STORAGE SINGAPORE (1983) PTE LTD,1.3165446779962,103.894289394701,845,GEYLANG ROAD,8,400845
COLD STORAGE SINGAPORE (1983) PTE LTD,1.44053814947729,103.800977588529,70,WOODLANDS AVENUE 7,5,738344
COLD STORAGE SINGAPORE (1983) PTE LTD,1.37805613765446,103.73893180394,475,CHOA CHU KANG AVENUE 3,1,680475
COLD STORAGE SINGAPORE (1983) PTE LTD,1.40053114255394,103.91053692695,622D,PUNGGOL CENTRAL,6,824622
COLD STORAGE SINGAPORE (1983) PTE LTD,1.37904775569569,103.772937487064,256,BANGKIT ROAD,69,670256
COLD STORAGE SINGAPORE (1983) PTE LTD,1.33667572858824,103.783709152299,896,DUNEARN ROAD,1,589472
COLD STORAGE SINGAPORE (1983) PTE LTD,1.34239284479656,103.776250537642,144,UPPER BUKIT TIMAH ROAD,1,588177
COLD STORAGE SINGAPORE (1983) PTE LTD,1.36267450256161,103.76417292134,4,HILLVIEW RISE,7,667979
COLD STORAGE SINGAPORE (1983) PTE LTD,1.31025542171459,103.795350440968,211,HOLLAND AVENUE,5,278967
COLD STORAGE SINGAPORE (1983) PTE LTD,1.3501891589254,103.749021982726,1,BUKIT BATOK CENTRAL LINK,1,658713
COLD STORAGE SINGAPORE (1983) PTE LTD,1.30119131472187,103.905113590458,80,MARINE PARADE ROAD,84,449269
COLD STORAGE SINGAPORE (1983) PTE LTD,1.33142685592296,103.948257061053,348,BEDOK ROAD,1,469560
COLD STORAGE SINGAPORE (1983) PTE LTD,1.36899800601439,103.958647646173,440,PASIR RIS DRIVE 4,1,510440
COLD STORAGE SINGAPORE (1983) PTE LTD,1.32257317593847,103.814245545298,501,BUKIT TIMAH ROAD,2,259760
COLD STORAGE SINGAPORE (1983) PTE LTD,1.2777953943487,103.819341304521,8,TELOK BLANGAH CRESCENT,171,90008
COLD STORAGE SINGAPORE (1983) PTE LTD,1.43061828496815,103.828762985206,102,YISHUN AVENUE 5,125,760102
COLD STORAGE SINGAPORE (1983) PTE LTD,1.33502430397913,103.746638245311,2,JURONG EAST STREET 21,100,609601
COLD STORAGE SINGAPORE (1983) PTE LTD,1.30197804716068,103.839758898411,176,ORCHARD ROAD,9/11,238843
COLD STORAGE SINGAPORE (1983) PTE LTD,1.33306648172659,103.931091390123,509,BEDOK NORTH STREET 3,121,460509
COLD STORAGE SINGAPORE (1983) PTE LTD,1.40566047542135,103.911991279242,671,EDGEFIELD PLAINS,1,820671
COLD STORAGE SINGAPORE (1983) PTE LTD,1.31275329888806,103.92365787344,2,FIRST STREET,5/16,458278
COLD STORAGE SINGAPORE (1983) PTE LTD,1.380850346979,103.879309100327,982,BUANGKOK CRESCENT,1,530982
COLD STORAGE SINGAPORE (1983) PTE LTD,1.30766861522346,103.828164400669,442,ORCHARD ROAD,1/11,238879
COLD STORAGE SINGAPORE (1983) PTE LTD,1.32000040915087,103.887363072166,118,ALJUNIED AVENUE 2,100,380118
COLD STORAGE SINGAPORE (1983) PTE LTD,1.35831704701199,103.749579874348,376,BUKIT BATOK STREET 31,116,650376
COLD STORAGE SINGAPORE (1983) PTE LTD,1.31008118565207,103.788532895746,21,GHIM MOH ROAD,177,270021
COLD STORAGE SINGAPORE (1983) PTE LTD,1.3466990504391,103.757276703167,284,BUKIT BATOK EAST AVENUE 3,251,650284
COLD STORAGE SINGAPORE (1983) PTE LTD,1.32987219697453,103.901929745106,306,UBI AVENUE 1,185,400306
COLD STORAGE SINGAPORE (1983) PTE LTD,1.30560570262798,103.915376080603,56,MARINE TERRACE,259,440056
COLD STORAGE SINGAPORE (1983) PTE LTD,1.35323163805116,103.871472859034,266,SERANGOON CENTRAL DRIVE,255,550266
COLD STORAGE SINGAPORE (1983) PTE LTD,1.30176130745621,103.769369393442,101,CLEMENTI ROAD,1,129787
COLD STORAGE SINGAPORE (1983) PTE LTD,1.29389358752931,103.853119912535,252,NORTH BRIDGE ROAD,1,179103
COLD STORAGE SINGAPORE (1983) PTE LTD,1.31733464253519,103.843463185078,101,THOMSON ROAD,52,307591
COLD STORAGE SINGAPORE (1983) PTE LTD,1.4361142481059,103.837605239088,293,YISHUN STREET 22,261,760293
COLD STORAGE SINGAPORE (1983) PTE LTD,1.37924528806956,103.887832026894,21,HOUGANG STREET 51,52,538719
COLD STORAGE SINGAPORE (1983) PTE LTD,1.30242417909428,103.83467613466,391A,ORCHARD ROAD,1,238873
COLD STORAGE SINGAPORE (1983) PTE LTD,1.33211277384514,103.857378075733,260,KIM KEAT AVENUE,1,310260
COLD STORAGE SINGAPORE (1983) PTE LTD,1.3214476908532,103.955419467871,20,EASTWOOD ROAD,7/9,486442
COLD STORAGE SINGAPORE (1983) PTE LTD,1.44176714678225,103.824495079721,604,SEMBAWANG ROAD,25,758459
COLD STORAGE SINGAPORE (1983) PTE LTD,1.35436493617486,103.960042189056,9,TAMPINES STREET 32,30,529286
COLD STORAGE SINGAPORE (1983) PTE LTD,1.44562289934866,103.798140996577,768,WOODLANDS AVENUE 6,34,730768
COLD STORAGE SINGAPORE (1983) PTE LTD,1.39209414927783,103.894980035249,1,SENGKANG SQUARE,25,545078
COLD STORAGE SINGAPORE (1983) PTE LTD,1.41738336744103,103.832979911333,201,YISHUN AVENUE 2,3,769092
COLD STORAGE SINGAPORE (1983) PTE LTD,1.36645363325574,103.964598501334,259,PASIR RIS STREET 21,27,510259
COLD STORAGE SINGAPORE (1983) PTE LTD,1.374239506746,103.839489194952,161,ANG MO KIO AVENUE 4,504,560161
COLD STORAGE SINGAPORE (1983) PTE LTD,1.37454928671824,103.937088181626,776,PASIR RIS STREET 71,412,510776
COLD STORAGE SINGAPORE (1983) PTE LTD,1.45273623395178,103.817249280953,406A,SEMBAWANG DRIVE,2,751406
COLD STORAGE SINGAPORE (1983) PTE LTD,1.44275332239793,103.79054802026,883,WOODLANDS STREET 82,498,730883
COLD STORAGE SINGAPORE (1983) PTE LTD,1.30756237263162,103.829352202761,1,CLAYMORE DRIVE,41,229594
COLD STORAGE SINGAPORE (1983) PTE LTD,1.38199703135061,103.897031078181,266,COMPASSVALE BOW,2,540266
COLD STORAGE SINGAPORE (1983) PTE LTD,1.42489931802522,103.847249793129,418,YISHUN AVENUE 11,433,760418
COLD STORAGE SINGAPORE (1983) PTE LTD,1.31617742511297,103.83781497569,36A,DUNEARN ROAD,44,309426
COLD STORAGE SINGAPORE (1983) PTE LTD,1.28355872540744,103.858505749339,2,BAYFRONT AVENUE,46,18972
COLD STORAGE SINGAPORE (1983) PTE LTD,1.34560771369918,103.882695852672,2,JALAN LOKAM,37,537846
COLD STORAGE SINGAPORE (1983) PTE LTD,1.38358044412737,103.770768312339,445,FAJAR ROAD,536,670445
COLD STORAGE SINGAPORE (1983) PTE LTD,1.30358269052594,103.76528451751,154,WEST COAST ROAD,,127371
COLD STORAGE SINGAPORE (1983) PTE LTD,1.31756196835644,103.785840623813,293,HOLLAND ROAD,,278628
COLD STORAGE SINGAPORE (1983) PTE LTD,1.30684882667818,103.788214538525,1,VISTA EXCHANGE GREEN,,138617
COLD STORAGE SINGAPORE (1983) PTE LTD,1.3314914715562,103.806809259373,20,GREENWOOD AVENUE,,289215
COLD STORAGE SINGAPORE (1983) PTE LTD,1.33899462247146,103.793133813234,200,TURF CLUB ROAD,,287994
COLD STORAGE SINGAPORE (1983) PTE LTD,1.34813378503649,103.685418471527,35,STUDENTS WALK,,639548
COLD STORAGE SINGAPORE (1983) PTE LTD,1.29487905112125,103.857675501543,3,TEMASEK BOULEVARD,,38983
COLD STORAGE SINGAPORE (1983) PTE LTD,1.27461794177448,103.8443195557,16,ENGGOR STREET,,79717
COLD STORAGE SINGAPORE (1983) PTE LTD,1.2471504063107,103.839555012608,1,COVE AVENUE,,98537
COLD STORAGE SINGAPORE (1983) PTE LTD,1.26206336450486,103.818625588159,1,MARITIME SQUARE,,99253
COLD STORAGE SINGAPORE (1983) PTE LTD,1.37210169537313,103.931999895836,21,TAMPINES NORTH DRIVE 2,,528765
COLD STORAGE SINGAPORE (1983) PTE LTD,1.35011243012885,103.724598702353,492,JURONG WEST STREET 41,,640492
COLD STORAGE SINGAPORE (1983) PTE LTD,1.36012370572957,103.76754238699,464,UPPER BUKIT TIMAH ROAD,,678077
CP MANAGEMENT SERVICES PRIVATE LIMITED,1.32674394478206,104.003578458884,80,TANAH MERAH COAST ROAD,2,498820
CULINA PTE LTD,1.30417511894087,103.809526142547,8,DEMPSEY ROAD,13,247696
CUTECH GREEN VENTURES PTE. LTD.,1.45334362223108,103.795682402301,10,WOODLANDS INDUSTRIAL PARK E1,,757733
D-RON INVESTMENTS PTE. LTD.,1.41690780081275,103.896018766281,2,SELETAR NORTH LINK,38,797601
DE ESPERTO MINIMART PTE. LTD.,1.45122063631724,103.797853420673,190,WOODLANDS INDUSTRIAL PARK E7,,757178
EN FROZEN PTE LTD,1.31672515166437,103.89797741752,1,GEYLANG SERAI,198,402001
FISHOP PTE. LTD.,1.2886146910195,103.805009970565,370,ALEXANDRA ROAD,58,159953
FOODIE MARKET PLACE PTE. LTD.,1.28345077313013,103.835371310094,225,OUTRAM ROAD,,169038
FOODIE MARKET PLACE PTE. LTD.,1.30608636797175,103.89614964274,313,TANJONG KATONG ROAD,,437096
FORTUNE SUPERMARKET PTE. LTD.,1.44834154204666,103.801057153449,780,WOODLANDS CRESCENT,1,730780
FORTUNE SUPERMARKET PTE. LTD.,1.45551208276585,103.814540291548,463,SEMBAWANG DRIVE,2,750463
FOUR SEASONS ORGANIC MARKET PTE. LTD.,1.30119131472187,103.905113590458,80,MARINE PARADE ROAD,83A,449269
G8 MART PTE. LTD.,1.36538421638439,103.852966963093,421,ANG MO KIO AVENUE 10,1161,560421
GOWRI'S GLOBAL MARKETING PTE. LTD.,1.32888600553213,103.677129986961,555,UPPER JURONG ROAD,2,638368
GOWRI'S GLOBAL MARKETING PTE. LTD.,1.41072219413685,103.76839596811,460,MANDAI ROAD,,729760
GURU'S MARKETING PTE. LTD.,1.31923811377776,103.732882480415,27,PENJURU WALK,15,608538
GURU'S MARKETING PTE. LTD.,1.32048426082957,103.726722841969,1,JALAN PAPAN,31,619392
GW TRADER PTE. LTD.,1.41833137911794,103.896447890319,8,SELETAR NORTH LINK,3,797455
HAO MART PTE. LTD.,1.39990420413757,103.919352755684,658,PUNGGOL EAST,1,820658
HAO MART PTE. LTD.,1.27784876908556,103.830811469037,146,JALAN BUKIT MERAH,1074,160146
HAO MART PTE. LTD.,1.3282116947432,103.859812582011,17,JALAN TENTERAM,128,321017
HAO MART PTE. LTD.,1.43359514246154,103.839685380422,239,YISHUN RING ROAD,1150,760239
HAO MART PTE. LTD.,1.33545352733956,103.863387984978,120,POTONG PASIR AVENUE 1,812,350120
HAO MART PTE. LTD.,1.45026201712259,103.822534722305,505,CANBERRA LINK,1,750505
HAO MART PTE. LTD.,1.3599856700583,103.958247655538,487B,TAMPINES STREET 45,123,521487
HAO MART PTE. LTD.,1.30706067505236,103.923769733617,15,SIGLAP ROAD,1,448912
HAO MART PTE. LTD.,1.32471580637604,103.857752875465,74,WHAMPOA DRIVE,332,320074
HAO MART PTE. LTD.,1.31179544978998,103.936894516324,54,BAYSHORE ROAD,7/8,469979
HAO MART PTE. LTD.,1.33177301702605,103.924236464013,537,BEDOK NORTH STREET 3,555,460537
HAO MART PTE. LTD.,1.35803524250899,103.848208491053,222,BISHAN STREET 23,K1,570222
HAO MART PTE. LTD.,1.3734302528997,103.773924087036,205,PETIR ROAD,595,670205
HAO MART PTE. LTD.,1.31935027280391,103.94363236217,69,BEDOK SOUTH AVENUE 3,484,460069
HAO MART PTE. LTD.,1.31317509715873,103.883646674404,448/450,GEYLANG ROAD,,389407
HAO MART PTE. LTD.,1.3730794666261,103.829630867108,16,JALAN KURAS,,577729
HAO MART PTE. LTD.,1.31346903905925,103.877004750675,32,LORONG 11 GEYLANG,,388724
HONESTBEE PTE. LTD.,1.27604519475402,103.797187338711,34,BOON LEAT TERRACE,,119866
HONG HENG SENG,1.2811973776484,103.843437329467,5,BANDA STREET,92,50005
HUBER'S PTE. LTD.,1.30679240718754,103.810185824202,22,DEMPSEY ROAD,,249679
I-TEC SUPERMART PTE LTD,1.31328861546158,103.885153154008,498/500,GEYLANG ROAD,,389456
IROHA INTERNATIONAL PTE. LTD.,1.30074756196423,103.845047628503,68,ORCHARD ROAD,17,238839
IROHA INTERNATIONAL PTE. LTD.,1.28499883856532,103.844697090786,133,NEW BRIDGE ROAD,11,59413
ISETAN (SINGAPORE) LIMITED?,1.33402529468935,103.74258601505,3,GATEWAY DRIVE,1,608532
ISETAN (SINGAPORE) LIMITED?,1.3058097922131,103.831507328438,350,ORCHARD ROAD,0,238868
ISYMI PTE LTD,1.35530903339479,103.887857189653,183,JALAN PELIKAT,12,537643
"JEWISH WELFARE BOARD, SINGAPORE, THE",1.29827328917638,103.850599507143,24,WATERLOO STREET,1,187950
JMD RETAIL PTE. LTD.,1.3041644719774,103.896327021939,330,TANJONG KATONG ROAD,,437106
JSJ CORPORATION PTE. LTD.,1.31845201086353,103.985869406123,31A,TANAH MERAH COAST ROAD,1,498720
KADER HASNA MARICAN,1.33314577537318,103.695248113879,17,KIAN TECK LANE,65,627851
KAI SOON SUPERMARKET PTE. LTD.,1.42213865028433,103.832882666076,780,YISHUN RING ROAD,3546,760780
KAVI TRADERS PTE. LTD.,1.31332235103777,103.627916988491,69R,TUAS SOUTH AVENUE 1,2,639926
KEK HONG HENG,1.31800981292651,103.731948910121,23,PENJURU WALK,81,608537
KINGSMART PTE. LTD.,1.31621042313668,103.732527150838,30,PENJURU PLACE,6/7,608557
L M MEAT PTE. LTD.,1.3236517309902,103.922102964585,750,CHAI CHEE ROAD,10,469000
L M MEAT PTE. LTD.,1.32042967863542,103.843892126913,10,SINARAN DRIVE,55,307506
L M MEAT PTE. LTD.,1.30358269052594,103.76528451751,154,WEST COAST ROAD,14,127371
L M MEAT PTE. LTD.,1.3343251542009,103.962389306789,5,CHANGI BUSINESS PARK CENTRAL 1,23,486038
LABIBA ENTERPRISE PTE. LTD.,1.39657415558799,103.872851581637,249,JALAN KAYU,,799473
LAMIAH ENTERPRISE PTE. LTD.,1.31146784739883,103.630340087983,5,TECH PARK CRESCENT,2,638127
LAURELS FOODS SUPPLIERS PTE LTD,1.32044171174546,103.778972465008,2,PANDAN VALLEY,204,597626
LI LI CHENG SUPERMARKET (PUNGGOL) PTE. LTD.,1.40230300615945,103.901262393433,273C,PUNGGOL PLACE,884,823273
LIM KING CHEW,1.36271446207954,103.893980506642,6,HOUGANG AVENUE 3,82,530006
LIN POH LING,1.34064293307986,103.854334496723,212,LORONG 8 TOA PAYOH,43/45,310212
LITTLE FARMS PTE. LTD.,1.31064350283582,103.795246166645,3,LORONG LIPUT,4,277725
LITTLE FARMS PTE. LTD.,1.29301786111443,103.826940812301,491,RIVER VALLEY ROAD,20,248371
LITTLE FARMS PTE. LTD.,1.27672493204774,103.845155396186,7,WALLICH STREET,6,78884
LOCH GROCER PTE. LTD.,1.34995541023414,103.717704811504,503,JURONG WEST AVENUE 1,847,640503
LOH NYEN YIU,1.30275121791614,103.865163649373,5001,BEACH ROAD,64,199588
LOTTE MART PTE. LTD.,1.34082661486743,103.774213263461,17,LORONG KILAT,2,598139
MAHOTA FOOD PTE. LTD.,1.3523611297845,103.943784815991,2,TAMPINES CENTRAL 5,7,529509
MAHOTA FOOD PTE. LTD.,1.30832700959572,103.862005875543,809,FRENCH ROAD,31,200809
MALAR MARKETING PTE. LTD.,1.31335809677308,103.627436995081,69,TUAS SOUTH AVENUE 1,2,637589
MCP FAIRMART PTE LTD,1.35925940699667,103.75069463728,BLK 371,BUKIT BATOK STREET 31,324,650371
MCP FAIRMART PTE LTD,1.33233467983413,103.938051292004,89,BEDOK NORTH STREET 4,107,460089
MCP FAIRMART PTE LTD,1.33375343289468,103.739371389066,135,JURONG GATEWAY ROAD,317,600135
MD SYDUR RAHMAN,1.29501368647394,103.626729263079,13,TUAS SOUTH STREET 5,1,637555
MEAT THE BUTCHER PTE. LTD.,1.32437350966463,103.809357938829,615,BUKIT TIMAH ROAD,,269716
MEIDI-YA SINGAPORE CO (PTE) LTD,1.29151478613339,103.844586298874,177,RIVER VALLEY ROAD,17,179030
MM SUNDRY SHOP PTE.LTD.,1.45464654784747,103.804476738376,27,WOODLANDS SECTOR 1,70,738252
MOHAMAD DAMAR HULAN BIN OSMAN,1.31714973629572,103.903965194579,212,CHANGI ROAD,,419735
MURUGAN TRADERS PTE LTD,1.32491980413317,103.705099705855,9,TRACTOR ROAD,,627970
MUSTAFA HOLDINGS PTE LTD,1.30975274714546,103.855701594507,147,SYED ALWI ROAD,,207706
NAWAS GLOBAL PTE. LTD.,1.27164226263376,103.633512282372,3,TUAS SOUTH STREET 12,16,636947
NG CHAI SENG,1.27392940817544,103.825310769144,109,BUKIT PURMEI ROAD,155,90109
NG LIAN TEE,1.33166477553301,103.80703380493,7,GREENDALE AVENUE,,289504
NG TOH TET,1.35151847178612,103.719496485079,442,JURONG WEST AVENUE 1,756,640442
NPS IMPEX PTE. LTD,1.29895146739633,103.627517906632,21,TUAS VIEW SQUARE,,637640
NTUC FAIRPRICE CO-OPERATIVE LTD,1.39219777362583,103.90447160757,11,RIVERVALE CRESCENT,1,545082
NTUC FAIRPRICE CO-OPERATIVE LTD,1.35466901882051,103.830919788426,301,UPPER THOMSON ROAD,25,574408
NTUC FAIRPRICE CO-OPERATIVE LTD,1.32397688357175,103.910689656957,110,LENGKONG TIGA,233/5,410110
NTUC FAIRPRICE CO-OPERATIVE LTD,1.34837104824236,103.948128932393,107,TAMPINES STREET 11,353/9,521107
NTUC FAIRPRICE CO-OPERATIVE LTD,1.33166183429417,103.850483008706,192,LORONG 4 TOA PAYOH,672,310192
NTUC FAIRPRICE CO-OPERATIVE LTD,1.37976753619581,103.936207570696,734,PASIR RIS STREET 72,37,510734
NTUC FAIRPRICE CO-OPERATIVE LTD,1.38493201671183,103.901558027563,118,RIVERVALE DRIVE,8,540118
NTUC FAIRPRICE CO-OPERATIVE LTD,1.35722282377111,103.843785259758,279,BISHAN STREET 24,62/64,570279
NTUC FAIRPRICE CO-OPERATIVE LTD,1.31553964712804,103.898764898642,2,JOO CHIAT ROAD,1139,420002
NTUC FAIRPRICE CO-OPERATIVE LTD,1.30782737247273,103.884763855717,41,JALAN TIGA,5,390041
NTUC FAIRPRICE CO-OPERATIVE LTD,1.36032331726567,103.953125974102,475,TAMPINES STREET 44,145,520475
NTUC FAIRPRICE CO-OPERATIVE LTD,1.35437073798267,103.985169647877,65,AIRPORT BOULEVARD,10,819663
NTUC FAIRPRICE CO-OPERATIVE LTD,1.27338252999837,103.808934817338,78A,TELOK BLANGAH STREET 32,1,101078
NTUC FAIRPRICE CO-OPERATIVE LTD,1.39712885652678,103.747329724589,61,CHOA CHU KANG DRIVE,1,689715
NTUC FAIRPRICE CO-OPERATIVE LTD,1.392073879435,103.743099576144,533,CHOA CHU KANG STREET 51,11,680533
NTUC FAIRPRICE CO-OPERATIVE LTD,1.32460665101076,103.67809636872,1,JOO KOON CIRCLE,21,629117
NTUC FAIRPRICE CO-OPERATIVE LTD,1.39730189954737,103.746558069293,21,CHOA CHU KANG NORTH 6,1/7,689578
NTUC FAIRPRICE CO-OPERATIVE LTD,1.35067551423916,103.871861623795,23,SERANGOON CENTRAL,42,556083
NTUC FAIRPRICE CO-OPERATIVE LTD,1.33177055027825,103.879294502591,401,MACPHERSON ROAD,22/29,368125
NTUC FAIRPRICE CO-OPERATIVE LTD,1.30476357340306,103.781697201377,28,DOVER CRESCENT,83,130028
NTUC FAIRPRICE CO-OPERATIVE LTD,1.33326818232541,103.740176741625,2,JURONG EAST CENTRAL 1,12,609731
NTUC FAIRPRICE CO-OPERATIVE LTD,1.32477207902253,103.929267657363,311,NEW UPPER CHANGI ROAD,60,467360
NTUC FAIRPRICE CO-OPERATIVE LTD,1.33233467983413,103.938051292004,89,BEDOK NORTH STREET 4,77/79,460089
NTUC FAIRPRICE CO-OPERATIVE LTD,1.30384327849927,103.872750707738,1,STADIUM PLACE,29,397628
NTUC FAIRPRICE CO-OPERATIVE LTD,1.34770147779385,103.757044586256,280,BUKIT BATOK EAST AVENUE 3,315,650280
NTUC FAIRPRICE CO-OPERATIVE LTD,1.3343251542009,103.962389306789,5,CHANGI BUSINESS PARK CENTRAL 1,8/11,486038
NTUC FAIRPRICE CO-OPERATIVE LTD,1.34270618915228,103.953024500232,3,SIMEI STREET 6,1,528833
NTUC FAIRPRICE CO-OPERATIVE LTD,1.3551909440899,103.988750977656,60,AIRPORT BOULEVARD,29,819643
NTUC FAIRPRICE CO-OPERATIVE LTD,1.38003057765068,103.75311841662,140,TECK WHYE LANE,351,680140
NTUC FAIRPRICE CO-OPERATIVE LTD,1.33320021671365,103.743170430901,50,JURONG GATEWAY ROAD,21/22,608549
NTUC FAIRPRICE CO-OPERATIVE LTD,1.34259104167685,103.739199499869,249,JURONG EAST STREET 24,106,600249
NTUC FAIRPRICE CO-OPERATIVE LTD,1.31188596098541,103.759080943921,502,WEST COAST DRIVE,41,120502
NTUC FAIRPRICE CO-OPERATIVE LTD,1.30385030848158,103.902850380057,30,EAST COAST ROAD,6/9,428751
NTUC FAIRPRICE CO-OPERATIVE LTD,1.32424554991112,103.9415687075,57,NEW UPPER CHANGI ROAD,1334,461057
NTUC FAIRPRICE CO-OPERATIVE LTD,1.32118979604503,103.903266275569,5,EUNOS CRESCENT,2619,400005
NTUC FAIRPRICE CO-OPERATIVE LTD,1.33253590792541,103.867036838441,6,POTONG PASIR AVENUE 2,1,358361
NTUC FAIRPRICE CO-OPERATIVE LTD,1.29277432695785,103.784084020187,1,LOWER KENT RIDGE ROAD,16,119082
NTUC FAIRPRICE CO-OPERATIVE LTD,1.31886941200841,103.894731355106,10,EUNOS ROAD 8,101,408600
NTUC FAIRPRICE CO-OPERATIVE LTD,1.31427860895568,103.771350566042,352,CLEMENTI AVENUE 2,141,120352
NTUC FAIRPRICE CO-OPERATIVE LTD,1.28112227851946,103.8100313205,108,DEPOT ROAD,1,100108
NTUC FAIRPRICE CO-OPERATIVE LTD,1.36650698092595,103.746847123122,2,BUKIT BATOK WEST AVENUE 7,10,659003
NTUC FAIRPRICE CO-OPERATIVE LTD,1.33653867658135,103.888762709438,18,TAI SENG STREET,13,539775
NTUC FAIRPRICE CO-OPERATIVE LTD,1.42452848118598,103.846595550971,414,YISHUN RING ROAD,1853,760414
NTUC FAIRPRICE CO-OPERATIVE LTD,1.28977814003505,103.826793758818,50,HAVELOCK ROAD,755,160050
NTUC FAIRPRICE CO-OPERATIVE LTD,1.43262602939439,103.774051198699,71,WOODLANDS AVENUE 3,1,739044
NTUC FAIRPRICE CO-OPERATIVE LTD,1.38054244056369,103.763993951638,1,JELEBU ROAD,15,677743
NTUC FAIRPRICE CO-OPERATIVE LTD,1.33375343289468,103.739371389066,135,JURONG EAST STREET 13,337,600135
NTUC FAIRPRICE CO-OPERATIVE LTD,1.31248299329667,103.765476758596,451,CLEMENTI AVENUE 3,307,120451
NTUC FAIRPRICE CO-OPERATIVE LTD,1.42952522056756,103.83499514286,301,YISHUN AVENUE 2,2,769093
NTUC FAIRPRICE CO-OPERATIVE LTD,1.34551209957725,103.731219147651,BLK 345,JURONG EAST STREET 31,29,600345
NTUC FAIRPRICE CO-OPERATIVE LTD,1.33865677093942,103.778560473793,1,JALAN ANAK BUKIT,1,588996
NTUC FAIRPRICE CO-OPERATIVE LTD,1.31139349438913,103.856487121487,180,KITCHENER ROAD,9/10,208539
NTUC FAIRPRICE CO-OPERATIVE LTD,1.32099294995032,103.870389995935,71,KALLANG BAHRU,531,330071
NTUC FAIRPRICE CO-OPERATIVE LTD,1.29301786111443,103.826940812301,491,RIVER VALLEY ROAD,14,248371
NTUC FAIRPRICE CO-OPERATIVE LTD,1.3487108014327,103.74933452639,10,BUKIT BATOK CENTRAL,8,659958
NTUC FAIRPRICE CO-OPERATIVE LTD,1.36655829857198,103.841624088452,215,ANG MO KIO AVENUE 1,877,560215
NTUC FAIRPRICE CO-OPERATIVE LTD,1.36924890739397,103.848399235571,53,ANG MO KIO AVENUE 3,40,569933
NTUC FAIRPRICE CO-OPERATIVE LTD,1.32379607925067,103.855670628839,80,LORONG LIMAU,191,320080
NTUC FAIRPRICE CO-OPERATIVE LTD,1.32512653292631,103.851055636335,360,BALESTIER ROAD,0,329783
NTUC FAIRPRICE CO-OPERATIVE LTD,1.32042967863542,103.843892126913,10,SINARAN DRIVE,47/48,307506
NTUC FAIRPRICE CO-OPERATIVE LTD,1.33983014805774,103.706460886826,1,JURONG WEST CENTRAL 2,9,648886
NTUC FAIRPRICE CO-OPERATIVE LTD,1.44822653003389,103.819462105427,30,SEMBAWANG DRIVE,1/3,757713
NTUC FAIRPRICE CO-OPERATIVE LTD,1.29727532047679,103.838533933775,131,KILLINEY ROAD,"01,02",239571
NTUC FAIRPRICE CO-OPERATIVE LTD,1.41103598112316,103.84403989942,1,ORCHID CLUB ROAD,34,769162
NTUC FAIRPRICE CO-OPERATIVE LTD,1.31536303357228,103.849434508531,43,CAMBRIDGE ROAD,15,210043
NTUC FAIRPRICE CO-OPERATIVE LTD,1.28311950277785,103.817642874205,166,BUKIT MERAH CENTRAL,3527,150166
NTUC FAIRPRICE CO-OPERATIVE LTD,1.28646345680433,103.826935081592,302,TIONG BAHRU ROAD,1,168732
NTUC FAIRPRICE CO-OPERATIVE LTD,1.27624052975614,103.843006122101,5,TANJONG PAGAR PLAZA,1,81005
NTUC FAIRPRICE CO-OPERATIVE LTD,1.28645354374901,103.80824240096,1,JALAN BUKIT MERAH,4500,150001
NTUC FAIRPRICE CO-OPERATIVE LTD,1.43755656449988,103.79513640221,888,WOODLANDS DRIVE 50,757,730888
NTUC FAIRPRICE CO-OPERATIVE LTD,1.38509601466743,103.760218439756,628,SENJA ROAD,1,670628
NTUC FAIRPRICE CO-OPERATIVE LTD,1.41698315581696,103.835218187743,849,YISHUN RING ROAD,3703,760849
NTUC FAIRPRICE CO-OPERATIVE LTD,1.31265450087908,103.87254179955,5,UPPER BOON KENG ROAD,5,380005
NTUC FAIRPRICE CO-OPERATIVE LTD,1.29270339832466,103.810958960395,57,DAWSON ROAD,1,142057
NTUC FAIRPRICE CO-OPERATIVE LTD,1.38621835288115,103.892995500981,279,SENGKANG EAST AVENUE,6,540279
NTUC FAIRPRICE CO-OPERATIVE LTD,1.36979940182639,103.873035798474,152B,SERANGOON NORTH AVENUE 1,384,552152
NTUC FAIRPRICE CO-OPERATIVE LTD,1.3270848591504,103.846476465683,20,AH HOOD ROAD,1,329984
NTUC FAIRPRICE CO-OPERATIVE LTD,1.36516070959148,103.865041855148,1,MAJU AVENUE,11/14,556679
NTUC FAIRPRICE CO-OPERATIVE LTD,1.2770770759001,103.831425859726,150,SILAT AVENUE,44,160150
NTUC FAIRPRICE CO-OPERATIVE LTD,1.34528144162057,103.945344294717,138,TAMPINES STREET 11,136,521138
NTUC FAIRPRICE CO-OPERATIVE LTD,1.37714073427956,103.953599087705,1,PASIR RIS CLOSE,127,519599
NTUC FAIRPRICE CO-OPERATIVE LTD,1.39139305725169,103.876067662182,33,SENGKANG WEST AVENUE,24,797653
NTUC FAIRPRICE CO-OPERATIVE LTD,1.37177995742086,103.894165384101,100,HOUGANG AVENUE 10,1,538767
NTUC FAIRPRICE CO-OPERATIVE LTD,1.33889072011391,103.848993319083,95,LORONG 4 TOA PAYOH,68,310095
NTUC FAIRPRICE CO-OPERATIVE LTD,1.36321586107786,103.835445360583,410A,SIN MING AVENUE,2,571410
NTUC FAIRPRICE CO-OPERATIVE LTD,1.40461002768949,103.908665607626,612,PUNGGOL DRIVE,6,820612
NTUC FAIRPRICE CO-OPERATIVE LTD,1.31909344185792,103.86390532629,30,BENDEMEER ROAD,871,330030
NTUC FAIRPRICE CO-OPERATIVE LTD,1.35349616014431,103.939683594446,51,TAMPINES AVENUE 4,1,528523
NTUC FAIRPRICE CO-OPERATIVE LTD,1.3774300635181,103.903712868236,476,UPPER SERANGOON VIEW,18,530476
NTUC FAIRPRICE CO-OPERATIVE LTD,1.394184094795,103.912976438987,168,PUNGGOL FIELD,1,820168
NTUC FAIRPRICE CO-OPERATIVE LTD,1.27458822422728,103.843470740865,100,TRAS STREET,1,79027
NTUC FAIRPRICE CO-OPERATIVE LTD,1.3921382839313,103.872490556756,447A,JALAN KAYU,2,791447
NTUC FAIRPRICE CO-OPERATIVE LTD,1.32594069682932,103.931640028654,212,BEDOK NORTH STREET 1,147,460212
NTUC FAIRPRICE CO-OPERATIVE LTD,1.32855656927862,103.885349909653,77,CIRCUIT ROAD,464/6,370077
NTUC FAIRPRICE CO-OPERATIVE LTD,1.35524289885319,103.931623638518,872C,TAMPINES STREET 86,1,523872
NTUC FAIRPRICE CO-OPERATIVE LTD,1.37140920462192,103.847082884002,712,ANG MO KIO AVENUE 6,4056,560712
NTUC FAIRPRICE CO-OPERATIVE LTD,1.30880609469533,103.861311961994,808,FRENCH ROAD,1,200808
NTUC FAIRPRICE CO-OPERATIVE LTD,1.38233698021703,103.893607840929,BLK 277C,COMPASSVALE LINK,13,543277
NTUC FAIRPRICE CO-OPERATIVE LTD,1.3554217626792,103.934315234757,866A,TAMPINES STREET 83,1,521866
NTUC FAIRPRICE CO-OPERATIVE LTD,1.3708945610762,103.856396513475,574,ANG MO KIO AVENUE 10,1847,560574
NTUC FAIRPRICE CO-OPERATIVE LTD,1.32176644586798,103.886672786663,114,ALJUNIED AVENUE 2,75,380114
NTUC FAIRPRICE CO-OPERATIVE LTD,1.38506836300634,103.744950388654,21,CHOA CHU KANG AVENUE 4,3,689812
NTUC FAIRPRICE CO-OPERATIVE LTD,1.34634819293844,103.712429317152,221,BOON LAY PLACE,200,640221
NTUC FAIRPRICE CO-OPERATIVE LTD,1.28668027234677,103.813766343919,20,LENGKOK BAHRU,13,159053
NTUC FAIRPRICE CO-OPERATIVE LTD,1.35023942729665,103.848477626073,9,BISHAN PLACE,20,579837
NTUC FAIRPRICE CO-OPERATIVE LTD,1.34888843913817,103.849691986415,510,BISHAN STREET 13,520,570510
NTUC FAIRPRICE CO-OPERATIVE LTD,1.37361830003654,103.88574886332,682,HOUGANG AVENUE 4,310,530682
NTUC FAIRPRICE CO-OPERATIVE LTD,1.3084928850612,103.784598109774,29A,GHIM MOH LINK,1,271029
NTUC FAIRPRICE CO-OPERATIVE LTD,1.30918211194726,103.79254748678,36,HOLLAND DRIVE,3,270036
NTUC FAIRPRICE CO-OPERATIVE LTD,1.37834971351323,103.762741183479,17,PETIR ROAD,67,678278
NTUC FAIRPRICE CO-OPERATIVE LTD,1.43507789397689,103.78661961568,900,SOUTH WOODLANDS DRIVE,1,730900
NTUC FAIRPRICE CO-OPERATIVE LTD,1.35267232042901,103.944387982831,4,TAMPINES CENTRAL 5,12,529510
NTUC FAIRPRICE CO-OPERATIVE LTD,1.40287845138627,103.913195747038,681,PUNGGOL DRIVE,1,820681
NTUC FAIRPRICE CO-OPERATIVE LTD,1.43106395014876,103.790454085829,570B,WOODLANDS AVENUE 1,6,732570
NTUC FAIRPRICE CO-OPERATIVE LTD,1.42799995739162,103.836142036927,1,NORTHPOINT DRIVE,103,768019
NTUC FAIRPRICE CO-OPERATIVE LTD,1.43991607901426,103.800701205041,676,WOODLANDS DRIVE 71,2,730676
NTUC FAIRPRICE CO-OPERATIVE LTD,1.37244980890777,103.949715696944,1,PASIR RIS CENTRAL STREET 3,10,518457
NTUC FAIRPRICE CO-OPERATIVE LTD,1.45384518800838,103.819543348008,511,CANBERRA ROAD,3,750511
NTUC FAIRPRICE CO-OPERATIVE LTD,1.33740471321143,103.921774737841,745,BEDOK RESERVOIR ROAD,3015,470745
NTUC FAIRPRICE CO-OPERATIVE LTD,1.35757558065219,103.884038461279,202,HOUGANG STREET 21,0,530202
NTUC FAIRPRICE CO-OPERATIVE LTD,1.44956647612199,103.818641141782,355,SEMBAWANG WAY,1,750355
NTUC FAIRPRICE CO-OPERATIVE LTD,1.41799925737436,103.841236466066,598,YISHUN RING ROAD,1,768698
NTUC FAIRPRICE CO-OPERATIVE LTD,1.37231186456868,103.893661619219,90,HOUGANG AVENUE 10,7,538766
NTUC FAIRPRICE CO-OPERATIVE LTD,1.3756672808109,103.879450260083,1,HOUGANG STREET 91,1,538692
NTUC FAIRPRICE CO-OPERATIVE LTD,1.29090918346995,103.803107635392,170,STIRLING ROAD,1147,140170
NTUC FAIRPRICE CO-OPERATIVE LTD,1.28499883856532,103.844697090786,133,NEW BRIDGE ROAD,1,59413
NTUC FAIRPRICE CO-OPERATIVE LTD,1.33296549379038,103.847050353797,500,LORONG 6 TOA PAYOH,,310500
NTUC FAIRPRICE CO-OPERATIVE LTD,1.27367658025919,103.801126955437,460,ALEXANDRA ROAD,,119963
NTUC FAIRPRICE CO-OPERATIVE LTD,1.31485322616185,103.764248204763,3155,COMMONWEALTH AVENUE WEST,,129588
NTUC FAIRPRICE CO-OPERATIVE LTD,1.33491977399192,103.963653907777,8,CHANGI BUSINESS PARK AVENUE 1,,486018
NTUC FAIRPRICE CO-OPERATIVE LTD,1.31414996835354,103.888544913634,612-620,GEYLANG ROAD,,389551
NTUC FAIRPRICE CO-OPERATIVE LTD,1.34833334908052,103.72430732776,498,JURONG WEST STREET 41,,640498
NTUC FAIRPRICE CO-OPERATIVE LTD,1.32052027199062,103.742651522893,37,TEBAN GARDENS ROAD,,600037
NTUC FAIRPRICE CO-OPERATIVE LTD,1.33931503939035,103.705351000578,63,JURONG WEST CENTRAL 3,,648331
NTUC FAIRPRICE CO-OPERATIVE LTD,1.42919468259866,103.781136890158,30,WOODLANDS AVENUE 1,,739065
NTUC FAIRPRICE CO-OPERATIVE LTD,1.33504201869474,103.720268020639,399,YUNG SHENG ROAD,,610399
NTUC FAIRPRICE CO-OPERATIVE LTD,1.33205937638185,103.722452888408,63/66,YUNG KUANG ROAD,,610063
NTUC FAIRPRICE CO-OPERATIVE LTD,1.28480734614992,103.829298011427,18 /20,KIM TIAN ROAD,,169252
NTUC FAIRPRICE CO-OPERATIVE LTD,1.34716235926513,103.74280788296,166,BUKIT BATOK WEST AVENUE 8,,650166
NTUC FAIRPRICE CO-OPERATIVE LTD,1.32383512680832,103.809999578549,587,BUKIT TIMAH ROAD,,269707
NTUC FAIRPRICE CO-OPERATIVE LTD,1.30836165161607,103.907988815995,239/255,EAST COAST ROAD,,428932
NTUC FAIRPRICE CO-OPERATIVE LTD,1.30585583497044,103.832984361905,6,SCOTTS ROAD,,228209
NTUC FAIRPRICE CO-OPERATIVE LTD,1.30141955705642,103.907112664975,6,MARINE PARADE CENTRAL,,449411
NTUC FAIRPRICE CO-OPERATIVE LTD,1.31230752821693,103.92523453825,934,EAST COAST ROAD,,459125
OH BENG GUAN,1.36393821477866,103.751896006132,395A,BUKIT BATOK WEST AVENUE 5,10,651395
ONE EIGHT SHOP PTE. LTD.,1.33658465251142,103.737623311665,104,JURONG EAST STREET 13,110,600104
PAN PACIFIC INTERNATIONAL HOLDINGS PTE. LTD.,1.27458822422728,103.843470740865,100,TRAS STREET,1/5,79027
PAN PACIFIC INTERNATIONAL HOLDINGS PTE. LTD.,1.3008389164153,103.839434735426,181,ORCHARD ROAD,1/3,238896
PAN PACIFIC INTERNATIONAL HOLDINGS PTE. LTD.,1.31139349438913,103.856487121487,180,KITCHENER ROAD,6,208539
PHAN NEE INVESTMENTS (S) PTE LTD,1.37761083897742,103.718403752899,500,OLD CHOA CHU KANG ROAD,21,698924
PHAN NEE INVESTMENTS (S) PTE LTD,1.37193280471552,103.720857418902,500,OLD CHOA CHU KANG ROAD,2,698928
PHAN NEE INVESTMENTS (S) PTE LTD,1.44518329012928,103.837963232741,2C,YISHUN AVENUE 7,3,768930
PHAN NEE TRADING LLP,1.4443412952404,103.839030200378,2B,YISHUN AVENUE 7,1,768929
PHAN NEE TRADING LLP,1.46138853767873,103.818111275279,49,ADMIRALTY ROAD WEST,,757444
PHANG NEE ENTERPRISE PTE. LTD.,1.32078791294416,103.729751339131,2D,JALAN PAPAN,4,619415
POPULAR SUPERMARKET PTE LTD,1.27030978388319,103.634163915466,12,TUAS SOUTH STREET 13,18/19,636937
PRB TRADING PTE. LTD.,1.31208877136103,103.877389270673,230,GEYLANG ROAD,,389290
PRIME SUPERMARKET (1996) PTE LTD,1.35370296933733,103.890680794853,106,HOUGANG AVENUE 1,1213,530106
PRIME SUPERMARKET (1996) PTE LTD,1.3467646554181,103.6788181373,50,NANYANG AVENUE,1/26,639798
PRIME SUPERMARKET (1996) PTE LTD,1.3206250589085,103.934734229515,18,BEDOK SOUTH ROAD,87,460018
PRIME SUPERMARKET (1996) PTE LTD,1.37743962647899,103.744383226701,253,CHOA CHU KANG AVENUE 1,7/10,680253
PRIME SUPERMARKET (1996) PTE LTD,1.38079049151902,103.751954418498,142,TECK WHYE LANE,281,680142
PRIME SUPERMARKET (1996) PTE LTD,1.37368392879254,103.871416983339,542B,SERANGOON NORTH AVENUE 3,1,552542
PRIME SUPERMARKET (1996) PTE LTD,1.35209059885687,103.879314599056,159A,HOUGANG STREET 11,1,531159
PRIME SUPERMARKET (1996) PTE LTD,1.42539842085522,103.83325904408,761,YISHUN STREET 72,348,760761
PRIME SUPERMARKET LIMITED,1.33429241375195,103.87874621482,1,UPPER ALJUNIED LANE,1,360001
PRIME SUPERMARKET LIMITED,1.34873284070164,103.934010241001,823,TAMPINES STREET 81,160,520823
PRIME SUPERMARKET LIMITED,1.3083652684116,103.860912787999,803,KING GEORGE'S AVENUE,154,200803
PRIME SUPERMARKET LIMITED,1.43998365427584,103.801293114431,678,WOODLANDS AVENUE 6,716,730678
PRIME SUPERMARKET LIMITED,1.34872643268225,103.698292007732,763,JURONG WEST STREET 75,1,640763
PRIME SUPERMARKET LIMITED,1.34857536716152,103.742708640389,159,BUKIT BATOK STREET 11,178,650159
PRIME SUPERMARKET LIMITED,1.34201783432949,103.691483120672,962,JURONG WEST STREET 91,300,640962
PRIME SUPERMARKET LIMITED,1.35894636653359,103.750365807136,373,BUKIT BATOK STREET 31,248,650373
PRIME SUPERMARKET LIMITED,1.32328960172887,103.924149642486,25A,CHAI CHEE ROAD,459,461025
PRIME SUPERMARKET LIMITED,1.39652617622188,103.908850766913,108,PUNGGOL FIELD,2,820108
PRIME SUPERMARKET LIMITED,1.39484815593414,103.896042269736,263,COMPASSVALE STREET,1,540263
RAW MARKET PTE. LTD.,1.37558830763911,103.960839727952,11,PASIR RIS LINK,48,518180
ROSWELL ENTERPRISE PTE LTD,1.33183240808538,103.806492419384,34,GREENWOOD AVENUE,,289236
SADIA MINIMART PTE LTD,1.40852996570468,103.759406170784,11,MANDAI ESTATE,16,729908
SADIA SUPERMARKET & TRADING (S) PTE. LTD.,1.27030978388319,103.634163915466,12,TUAS SOUTH STREET 13,20/21,636937
SADIA SUPERMARKET & TRADING (S) PTE. LTD.,1.31069428534009,103.630190017208,14,TECH PARK CRESCENT,2,638118
SARATHI STORES PTE LTD,1.33748492133075,103.887004168998,91,UPPER PAYA LEBAR ROAD,,534821
SEOUL BUTCHERY PTE. LTD.,1.34207496300068,103.774632799754,13,YUK TONG AVENUE,,596318
SF (313) PTE. LTD.,1.29487905112125,103.857675501543,3,TEMASEK BOULEVARD,616,38983
SHAFEN SUPERMARKET & TRADING (S) PTE. LTD.,1.33641798055282,103.751807387865,18,TOH GUAN ROAD EAST,2,608596
SHAHUL HAMEED S/O ABDUSALAM,1.34753518989402,103.951702778283,280,TAMPINES STREET 22,244,520280
SHENG SIONG SUPERMARKET PTE LTD,1.31423937057047,103.870914035563,11,UPPER BOON KENG ROAD,901,380011
SHENG SIONG SUPERMARKET PTE LTD,1.44680413155135,103.80548757912,785E,WOODLANDS RISE,1,735785
SHENG SIONG SUPERMARKET PTE LTD,1.40262196510476,103.916519601442,660A,EDGEDALE PLAINS,1,821660
SHENG SIONG SUPERMARKET PTE LTD,1.30778510070706,103.857010987509,1,JALAN BERSEH,3/22,209037
SHENG SIONG SUPERMARKET PTE LTD,1.3701886043625,103.843413241014,122,ANG MO KIO AVENUE 3,1753,560122
SHENG SIONG SUPERMARKET PTE LTD,1.42015550315781,103.843558892177,675,YISHUN AVENUE 4,10,760675
SHENG SIONG SUPERMARKET PTE LTD,1.36754924783084,103.83674063794,233,ANG MO KIO AVENUE 3,1168,560233
SHENG SIONG SUPERMARKET PTE LTD,1.35572307607651,103.739303106346,440,BUKIT BATOK WEST AVENUE 8,10,650440
SHENG SIONG SUPERMARKET PTE LTD,1.39158704139214,103.879872489529,417,FERNVALE LINK,11,790417
SHENG SIONG SUPERMARKET PTE LTD,1.44886402051704,103.832392856092,105,CANBERRA STREET,5,750105
SHENG SIONG SUPERMARKET PTE LTD,1.39922856580931,103.889653921063,338,ANCHORVALE CRESCENT,11,540338
SHENG SIONG SUPERMARKET PTE LTD,1.43351253350403,103.779746864012,4,WOODLANDS STREET 12,61,738623
SHENG SIONG SUPERMARKET PTE LTD,1.30246409193291,103.763750974319,720,CLEMENTI WEST STREET 2,144,120720
SHENG SIONG SUPERMARKET PTE LTD,1.32213636288701,103.738292804658,61,TEBAN GARDENS ROAD,21,600061
SHENG SIONG SUPERMARKET PTE LTD,1.37563500165175,103.871996419079,19,SERANGOON NORTH AVENUE 5,1/2,554913
SHENG SIONG SUPERMARKET PTE LTD,1.35303824733614,103.743948448003,451,BUKIT BATOK WEST AVENUE 6,10,650451
SHENG SIONG SUPERMARKET PTE LTD,1.38060511575374,103.760041592308,1,WOODLANDS ROAD,7,677899
SHENG SIONG SUPERMARKET PTE LTD,1.43109807068463,103.798507625993,573,WOODLANDS DRIVE 16,1,730573
SHENG SIONG SUPERMARKET PTE LTD,1.32463573239521,103.931068836576,209,NEW UPPER CHANGI ROAD,631,460209
SHENG SIONG SUPERMARKET PTE LTD,1.36700053512078,103.964617780128,258,PASIR RIS STREET 21,10,510258
SHENG SIONG SUPERMARKET PTE LTD,1.30203802909961,103.798021747973,88,TANGLIN HALT ROAD,10,141088
SHENG SIONG SUPERMARKET PTE LTD,1.30811886968959,103.786049389035,25,GHIM MOH LINK,11,270025
SHENG SIONG SUPERMARKET PTE LTD,1.38400581939075,103.771029612234,446,FAJAR ROAD,1,670446
SHENG SIONG SUPERMARKET PTE LTD,1.3882402152635,103.769575387874,547,SEGAR ROAD,6,670547
SHENG SIONG SUPERMARKET PTE LTD,1.39779874004409,103.881698809438,473,FERNVALE STREET,6,790473
SHENG SIONG SUPERMARKET PTE LTD,1.34737179952411,103.743698115504,154A,BUKIT BATOK WEST AVENUE 8,1,651154
SHENG SIONG SUPERMARKET PTE LTD,1.40371939366127,103.906138013326,301,PUNGGOL CENTRAL,1,820301
SHENG SIONG SUPERMARKET PTE LTD,1.3778920308286,103.856411982148,2,ANG MO KIO DRIVE,12,567720
SHENG SIONG SUPERMARKET PTE LTD,1.43303198083989,103.84160082548,18,YISHUN AVENUE 9,6/10,768897
SHENG SIONG SUPERMARKET PTE LTD,1.36968624846978,103.947922430563,527D,PASIR RIS STREET 51,1,514527
SHENG SIONG SUPERMARKET PTE LTD,1.33824202544731,103.923303938599,739A,BEDOK RESERVOIR ROAD,1,471739
SHENG SIONG SUPERMARKET PTE LTD,1.33904479825353,103.855541071679,4,LORONG 7 TOA PAYOH,107,310004
SHENG SIONG SUPERMARKET PTE LTD,1.37829768231985,103.754071407342,18,TECK WHYE LANE,95,680018
SHENG SIONG SUPERMARKET PTE LTD,1.30778510070706,103.857010987509,1,JALAN BERSEH,2,209037
SHENG SIONG SUPERMARKET PTE LTD,1.29531966854901,103.809758594158,85,DAWSON ROAD,1,141085
SHENG SIONG SUPERMARKET PTE LTD,1.30973331408822,103.768637301316,420A,CLEMENTI AVENUE 1,1,121420
SHENG SIONG SUPERMARKET PTE LTD,1.33143368800346,103.936865411478,115,BEDOK NORTH ROAD,319,460115
SHENG SIONG SUPERMARKET PTE LTD,1.32918105553869,103.888248444761,18B,CIRCUIT ROAD,260,372018
SHENG SIONG SUPERMARKET PTE LTD,1.43150526868815,103.773515667645,301,WOODLANDS STREET 31,217,730301
SHENG SIONG SUPERMARKET PTE LTD,1.41601879836322,103.835000770936,845,YISHUN STREET 81,184,760845
SHENG SIONG SUPERMARKET PTE LTD,1.42750547876461,103.837125285904,925,YISHUN CENTRAL 1,211,760925
SHENG SIONG SUPERMARKET PTE LTD,1.32161904109972,103.859382727107,108,MCNAIR ROAD,295,321108
SHENG SIONG SUPERMARKET PTE LTD,1.45074972989745,103.796846522878,200,WOODLANDS INDUSTRIAL PARK E7,30,757177
SHENG SIONG SUPERMARKET PTE LTD,1.41081926280608,103.900371678954,312A,SUMANG LINK,4,821312
SHENG SIONG SUPERMARKET PTE LTD,1.35184498235634,103.836053654084,200,UPPER THOMSON ROAD,1,574424
SHENG SIONG SUPERMARKET PTE LTD,1.3523935762758,103.715759509791,544,JURONG WEST STREET 42,97/99,640544
SHENG SIONG SUPERMARKET PTE LTD,1.28708278767219,103.841580116173,52,CHIN SWEE ROAD,25,160052
SHENG SIONG SUPERMARKET PTE LTD,1.31427860895568,103.771350566042,352,CLEMENTI AVENUE 2,91&99,120352
SHENG SIONG SUPERMARKET PTE LTD,1.31923811377776,103.732882480415,27,PENJURU WALK,24,608538
SHENG SIONG SUPERMARKET PTE LTD,1.35590218547803,103.945912189651,506,TAMPINES CENTRAL 1,361,520506
SHENG SIONG SUPERMARKET PTE LTD,1.3324023017993,103.925500600051,539A,BEDOK NORTH STREET 3,477,461539
SHENG SIONG SUPERMARKET PTE LTD,1.32546808409855,103.725221546037,3,YUAN CHING ROAD,,618642
SHENG SIONG SUPERMARKET PTE LTD,1.34878489456242,103.703415655686,7,JURONG WEST AVENUE 5,,649486
SHENG SIONG SUPERMARKET PTE LTD,1.3127205532191,103.878641503568,301,GEYLANG ROAD,,389344
SHINVA AGRO FOODS PTE. LTD.,1.3110024025961,103.631572325734,11,TECH PARK CRESCENT,3,638121
SHINVA AGRO FOODS PTE. LTD.,1.30091146604893,103.627788892117,115,TUAS VIEW WALK 1,,637734
SIVAMANI MINIMART PTE LTD,1.33888230373418,103.886109258393,141,UPPER PAYA LEBAR ROAD,,534846
SONG FISH DEALER PTE LTD,1.37834971351323,103.762741183479,17,PETIR ROAD,3,678278
SONG FISH DEALER PTE LTD,1.3236517309902,103.922102964585,750,CHAI CHEE ROAD,9,469000
SONG FISH DEALER PTE LTD,1.3523611297845,103.943784815991,2,TAMPINES CENTRAL 5,8,529509
SONG FISH DEALER PTE LTD,1.42969848150358,103.835776497586,930,YISHUN AVENUE 2,5,769098
SONG FISH DEALER PTE LTD,1.28499883856532,103.844697090786,133,NEW BRIDGE ROAD,26,59413
SONG FISH DEALER PTE LTD,1.33983014805774,103.706460886826,1,JURONG WEST CENTRAL 2,26,648886
SONG FISH DEALER PTE LTD,1.33320021671365,103.743170430901,50,JURONG GATEWAY ROAD,43,608549
SUN TRG & CON PTE LTD,1.45132505304739,103.791095177079,280,WOODLANDS INDUSTRIAL PARK E5,24,757322
SUPERNATURE PTE LTD,1.30619579913532,103.828509016301,583,ORCHARD ROAD,,238884
SUZYAMEER FROZEN PTE. LTD.,1.35226231253931,103.95358649775,201D,TAMPINES STREET 21,1161,524201
SWISS BUTCHERY (2013) PRIVATE LIMITED,1.33176109907579,103.806586886276,30,GREENWOOD AVENUE,,289230
SWISS BUTCHERY PTE LTD,1.30561167116125,103.822962948156,56,TANGLIN ROAD,2,247964
T S J INDUSTRIAL (S) PTE. LTD.,1.33683097371867,103.75434143082,48,TOH GUAN ROAD EAST,130,608586
TAN CHUAN BOON,1.36620942758889,103.895144898127,309,HOUGANG AVENUE 5,293,530309
TAN KWEE ENG,1.43007109706807,103.842396448241,327,YISHUN RING ROAD,1320,760327
TAN PAK NANG,1.33312323989581,103.878841903145,387,UPPER ALJUNIED ROAD,,367872
TANESEI RETAILING PTE. LTD.,1.3523611297845,103.943784815991,2,TAMPINES CENTRAL 5,6,529509
TANESEI RETAILING PTE. LTD.,1.30523472024853,103.905014934935,112,EAST COAST ROAD,9,428802
TANESEI TRADING PTE. LTD.,1.30684882667818,103.788214538525,1,VISTA EXCHANGE GREEN,28,138617
"TANG KER AN, TIMOTHY",1.3206250589085,103.934734229515,18,BEDOK SOUTH ROAD,67,460018
TASTE (SINGAPORE) PRIVATE LIMITED,1.31052978656723,103.796105205941,118,HOLLAND AVENUE,1/10,278997
TEO BOBBY,1.35367102829776,103.870756830653,253,SERANGOON CENTRAL DRIVE,241,550253
TEO BOBBY,1.32476040694715,103.924370235887,29,CHAI CHEE AVENUE,62,460029
THE ALASKA GUYS PTE. LTD.,1.31212247677014,103.911185988113,201,TELOK KURAU ROAD,5,423910
THE BUTCHER (SINGAPORE) PTE. LTD.,1.3119219563809,103.796844046992,44,JALAN MERAH SAGA,50,278116
THE BUTCHER (SINGAPORE) PTE. LTD.,1.30119131472187,103.905113590458,80,MARINE PARADE ROAD,83B,449269
THE FISHWIVES PTE. LTD.,1.32257317593847,103.814245545298,501,BUKIT TIMAH ROAD,05B,259760
THE FOODSPREE PTE LTD,1.31290445966393,103.899711254654,162,JOO CHIAT ROAD,1,427437
THE QUALITYMART DEPOT PTE. LTD.,1.28220136427594,103.803023763143,180,DEPOT ROAD,4,109684
THE SEAFOOD MARKET PLACE (BY SONG FISH) PTE. LTD.,1.40287845138627,103.913195747038,681,PUNGGOL DRIVE,9,820681
THE SEAFOOD MARKET PLACE (BY SONG FISH) PTE. LTD.,1.43991607901426,103.800701205041,676,WOODLANDS DRIVE 71,4,730676
THE SEAFOOD MARKET PLACE (BY SONG FISH) PTE. LTD.,1.31469214115978,103.894480527876,11,TANJONG KATONG ROAD,15,437157
THNG SAIK MONG,1.32212393765921,103.770265909205,108,CLEMENTI STREET 11,K1,120108
TOH GUAN MINI MART PTE LTD,1.33832657868868,103.753536116977,19,TOH GUAN ROAD EAST,65,608568
TUAS SOUTH MINIMART PTE. LTD.,1.27067712305135,103.636144795044,6,TUAS SOUTH STREET 15,,636906
U STARS PTE. LTD.,1.37860238037503,103.941978177656,625,ELIAS ROAD,302,510625
U STARS PTE. LTD.,1.44062992233001,103.806198058319,691,WOODLANDS DRIVE 73,6,730691
U STARS PTE. LTD.,1.41517633772651,103.83983039077,507,YISHUN AVENUE 4,9,760507
U STARS PTE. LTD.,1.37405796748332,103.746160084444,810,CHOA CHU KANG AVENUE 7,1,680810
U STARS PTE. LTD.,1.3775438427841,103.749700044104,817,KEAT HONG LINK,14,680817
U STARS SUPERMARKET PTE. LTD.,1.3512641069979,103.929363838846,878C,TAMPINES AVENUE 8,65,523878
U STARS SUPERMARKET PTE. LTD.,1.40322711960687,103.895387026654,218,SUMANG WALK,1,820218
U STARS SUPERMARKET PTE. LTD.,1.31770281913597,103.769076732946,345,CLEMENTI AVENUE 5,78,120345
U STARS SUPERMARKET PTE. LTD.,1.38977025366003,103.892787164081,215C,COMPASSVALE DRIVE,1,543215
U STARS SUPERMARKET PTE. LTD.,1.39684979447052,103.889246757276,330,ANCHORVALE STREET,1,540330
U STARS SUPERMARKET PTE. LTD.,1.40541353593882,103.896823897364,261,PUNGGOL WAY,2,820261
V SURESH KUMAR,1.45982817398421,103.820073449022,51,ADMIRALTY ROAD WEST - LODGE 1,,757443
VINAYAK TRADERS PTE. LTD.,1.31923811377776,103.732882480415,27,PENJURU WALK,8/9,608538
VINAYAK TRADERS PTE. LTD.,1.32048426082957,103.726722841969,1,JALAN PAPAN,33,619392
VIVA CORP SERVICES PTE. LTD.,1.33733862368542,103.903735085122,23,KAKI BUKIT ROAD 3,2,415812
WAN SIEW YOONG,1.28180062455801,103.842908168065,4,SAGO LANE,103,50004
WONS BUTCHERY PTE. LTD.,1.30570970646179,103.824463823195,1,ST. MARTIN'S DRIVE,1,257988
YEO HOCK HENG,1.31357605426931,103.881877796975,5,ALJUNIED ROAD,,389797
YEO KENG GUAN,1.31661898336453,103.778947263616,5,RIDGEWOOD CLOSE,,276696
YES SUPERMARKET PTE LTD,1.35345315592225,103.953009921086,201B,TAMPINES STREET 21,1091,522201
YOUR GROCER PRIVATE LIMITED,1.28807688301773,103.827081283638,34,JALAN BUKIT HO SWEE,870,160034
YS LOGISTICS (S) PTE. LTD.,1.30859346145721,103.722316838638,15,JALAN TEPONG,2,619336
ZAC MEAT & POULTRY PTE LTD,1.31574933269594,103.925857026336,1B,FIGARO STREET,,458322
