supermarket_name,supermarket_lat,supermarket_lng,supermarket_street,supermarket_block,supermarket_unit,supermarket_postcode,supermarket_license_no,supermarket_record_updated_at,supermarket_lon
BLUEWATER SEAFOOD PTE. LTD.,1.30344597,103.80938167,DEMPSEY ROAD,8D,1,249672,CE18D64L000,20181003180619,
PAN PACIFIC INTERNATIONAL HOLDINGS PTE. LTD.,1.27458822,103.84347074,TRAS STREET,100,1/5,79027,CE18A78X000,20180711174048,
PRIME SUPERMARKET LIMITED,1.33429241,103.87874621,UPPER ALJUNIED LANE,1,1,360001,SE04040C000,20171129183653,
COLD STORAGE SINGAPORE (1983) PTE LTD,1.32021102,103.84365677,THOMSON ROAD,238,28/29,307683,W02074L000,20171129183654,
COLD STORAGE SINGAPORE (1983) PTE LTD,1.33295873,103.91494183,BEDOK RESERVOIR ROAD,631,954,470631,S02210X000,20171129183653,
COLD STORAGE SINGAPORE (1983) PTE LTD,1.30982227,103.9022325,JOO CHIAT ROAD,291,1,427543,SE11505P000,20180711174048,
PRIME SUPERMARKET (1996) PTE LTD,1.35370297,103.89068079,HOUGANG AVENUE 1,106,1213,530106,S02059X000,20171129183653,
THE FISHWIVES PTE. LTD.,1.32257318,103.81424555,BUKIT TIMAH ROAD,501,05B,259760,W02430L000,20171129183654,
"CHEE MIN KUAN, SIMON",1.30373373,103.89649824,TANJONG KATONG ROAD,342,,437112,SE14965K000,20181003180619,
SHENG SIONG SUPERMARKET PTE LTD,1.3077851,103.85701099,JALAN BERSEH,1,3/22,209037,CE12096L000,20181003180619,
SHENG SIONG SUPERMARKET PTE LTD,1.3701886,103.84341324,ANG MO KIO AVENUE 3,122,1753,560122,B02015J000,20171129183653,
THE SEAFOOD MARKET PLACE (BY SONG FISH) PTE. LTD.,1.40287845,103.91319575,PUNGGOL DRIVE,681,9,820681,NE18529J000,20181003180619,
LI LI CHENG SUPERMARKET (PUNGGOL) PTE. LTD.,1.40230301,103.90126239,PUNGGOL PLACE,273C,884,823273,NE12I65N000,20171129183653,
SHENG SIONG SUPERMARKET PTE LTD,1.35572308,103.73930311,BUKIT BATOK WEST AVENUE 8,440,10,650440,SW18A30L000,20181003180619,
COLD STORAGE SINGAPORE (1983) PTE LTD,1.3726457,103.85389071,ANG MO KIO AVENUE 10,525,2401,560525,S02169J000,20180711174048,
COLD STORAGE SINGAPORE (1983) PTE LTD,1.30484344,103.8238528,TANGLIN ROAD,163,2/3,247933,W02073N000,20181003180619,
COLD STORAGE SINGAPORE (1983) PTE LTD,1.30222178,103.87615267,STADIUM WALK,5,1,397693,SE07216L000,20171129183653,
LITTLE FARMS PTE. LTD.,1.3106435,103.79524617,LORONG LIPUT,3,4,277725,CE18I13C000,20181003180619,
SHENG SIONG SUPERMARKET PTE LTD,1.40262197,103.9165196,EDGEDALE PLAINS,660A,1,821660,NE17700J000,20180711174048,
SONG FISH DEALER PTE LTD,1.37834971,103.76274118,PETIR ROAD,17,3,678278,NW17069X000,20180711174048,
WONS BUTCHERY PTE. LTD.,1.30570971,103.82446382,ST. MARTIN'S DRIVE,1,1,257988,CE18G34E000,20181003180619,
COLD STORAGE SINGAPORE (1983) PTE LTD,1.3232504,103.76726005,SUNSET WAY,41,01A,597071,NW08141P000,20171129183654,
TAN KWEE ENG,1.4300711,103.84239645,YISHUN RING ROAD,327,1320,760327,B02041C000,20171129183653,
MURUGAN TRADERS PTE LTD,1.3249198,103.70509971,TRACTOR ROAD,9,,627970,SW18B79P000,20181003180619,
AJMAL TRADING GROUP PTE. LTD.,1.32210836,103.72748075,JALAN PAPAN,5,32,619396,SW16B52K000,20181003180619,
G8 MART PTE. LTD.,1.36538422,103.85296696,ANG MO KIO AVENUE 10,421,1161,560421,CE13401C000,20171129183653,
JSJ CORPORATION PTE. LTD.,1.31845201,103.98586941,TANAH MERAH COAST ROAD,31A,1,498720,SE17345J000,20181003180619,
SHENG SIONG SUPERMARKET PTE LTD,1.44680413,103.80548758,WOODLANDS RISE,785E,1,735785,NW18649C000,20181003180619,
HAO MART PTE. LTD.,1.3999042,103.91935276,PUNGGOL EAST,658,1,820658,NE18667L000,20181003180619,
KAI SOON SUPERMARKET PTE. LTD.,1.42213865,103.83288267,YISHUN RING ROAD,780,3546,760780,W03223N000,20171129183653,
SUZYAMEER FROZEN PTE. LTD.,1.35226231,103.9535865,TAMPINES STREET 21,201D,1161,524201,NE08357A000,20171129183653,
LOTTE MART PTE. LTD.,1.34082661,103.77421326,LORONG KILAT,17,2,598139,SW06806E000,20181003180619,
SHENG SIONG SUPERMARKET PTE LTD,1.36754925,103.83674064,ANG MO KIO AVENUE 3,233,1168,560233,CE04334P000,20171129183653,
ABEDIN TRADING PTE. LTD.,1.31420655,103.88669976,GEYLANG ROAD,599,1,389538,SE15464L000,20171129183653,
COLD STORAGE SINGAPORE (1983) PTE LTD,1.37332122,103.88636554,HOUGANG AVENUE 8,683,903,530683,NE11909C000,20171129183653,
PHAN NEE TRADING LLP,1.4443413,103.8390302,YISHUN AVENUE 7,2B,1,768929,NW08337X000,20181003180619,
U STARS PTE. LTD.,1.37860238,103.94197818,ELIAS ROAD,625,302,510625,NE04092A000,20181003180619,
SHENG SIONG SUPERMARKET PTE LTD,1.31423937,103.87091404,UPPER BOON KENG ROAD,11,901,380011,E73010V000,20171129183653,
SHENG SIONG SUPERMARKET PTE LTD,1.4201555,103.84355889,YISHUN AVENUE 4,675,10,760675,NW18478E000,20181003180619,
THE SEAFOOD MARKET PLACE (BY SONG FISH) PTE. LTD.,1.43991608,103.80070121,WOODLANDS DRIVE 71,676,4,730676,NW18310J000,20180711174048,
B & S MINI MART PTE. LTD.,1.31245105,103.87962232,GEYLANG ROAD,310,,389349,CE14Q85A000,20181003180619,
AJMAL TRADING GROUP PTE. LTD.,1.46152555,103.80943895,WOODLANDS SECTOR 2,2,5,737723,NW15489B000,20181003180619,
YES SUPERMARKET PTE LTD,1.35345316,103.95300992,TAMPINES STREET 21,201B,1091,522201,S02037J000,20171129183653,
COLD STORAGE SINGAPORE (1983) PTE LTD,1.42969848,103.8357765,YISHUN AVENUE 2,930,6/7,769098,NW08314K000,20180222094454,
YEO KENG GUAN,1.31661898,103.77894726,RIDGEWOOD CLOSE,5,,276696,C02052N000,20171129183654,
SHENG SIONG SUPERMARKET PTE LTD,1.43351253,103.77974686,WOODLANDS STREET 12,4,61,738623,NW17734V000,20180222094454,
COLD STORAGE SINGAPORE (1983) PTE LTD,1.29929407,103.78740406,FUSIONOPOLIS WAY,1,3,138632,SW17E56V000,20180222094454,
SHENG SIONG SUPERMARKET PTE LTD,1.44886402,103.83239286,CANBERRA STREET,105,5,750105,NW18021V000,20180222094454,
COLD STORAGE SINGAPORE (1983) PTE LTD,1.4357608,103.83672388,YISHUN STREET 22,291,389/3,760291,NW04015N000,20180711174048,
COLD STORAGE SINGAPORE (1983) PTE LTD,1.31756197,103.78584062,HOLLAND ROAD,293,,278628,C02025V000,20171129183654,
HAO MART PTE. LTD.,1.27784877,103.83081147,JALAN BUKIT MERAH,146,1074,160146,CE17M36X000,20180222094454,
COLD STORAGE SINGAPORE (1983) PTE LTD,1.28861469,103.80500997,ALEXANDRA ROAD,370,3/7,159953,CE07569B000,20180222094454,
COLD STORAGE SINGAPORE (1983) PTE LTD,1.30974242,103.86410165,KALLANG AVENUE,12,47,339511,CE14G73B000,20171129183653,
FOODIE MARKET PLACE PTE. LTD.,1.28345077,103.83537131,OUTRAM ROAD,225,,169038,CE10I13B000,20171129183654,
SHENG SIONG SUPERMARKET PTE LTD,1.39922857,103.88965392,ANCHORVALE CRESCENT,338,11,540338,CE17Q33A000,20180222094454,
WAN SIEW YOONG,1.28180062,103.84290817,SAGO LANE,4,103,50004,W02099P000,20180222094454,
HAO MART PTE. LTD.,1.32821169,103.85981258,JALAN TENTERAM,17,128,321017,CE17M26A000,20180222094454,
SUPERNATURE PTE LTD,1.3061958,103.82850902,ORCHARD ROAD,583,,238884,CE13539N000,20171129183654,
SHENG SIONG SUPERMARKET PTE LTD,1.39158704,103.87987249,FERNVALE LINK,417,11,790417,CE17Q32B000,20180222094454,
COLD STORAGE SINGAPORE (1983) PTE LTD,1.31469214,103.89448053,TANJONG KATONG ROAD,11,36,437157,SE14875L000,20171129183653,
COLD STORAGE SINGAPORE (1983) PTE LTD,1.33149147,103.80680926,GREENWOOD AVENUE,20,,289215,CE09685B000,20171129183654,
SHENG SIONG SUPERMARKET PTE LTD,1.30246409,103.76375097,CLEMENTI WEST STREET 2,720,144,120720,SW05051J000,20171129183653,
T S J INDUSTRIAL (S) PTE. LTD.,1.33683097,103.75434143,TOH GUAN ROAD EAST,48,130,608586,SW14484J000,20171129183653,
U STARS PTE. LTD.,1.44062992,103.80619806,WOODLANDS DRIVE 73,691,6,730691,NW17990N000,20180222094454,
MUSTAFA HOLDINGS PTE LTD,1.30975275,103.85570159,SYED ALWI ROAD,147,,207706,W03142N000,20171129183654,
PAN PACIFIC INTERNATIONAL HOLDINGS PTE. LTD.,1.30083892,103.83943474,ORCHARD ROAD,181,1/3,238896,CE17L45A000,20180222094454,
HUBER'S PTE. LTD.,1.30679241,103.81018582,DEMPSEY ROAD,22,,249679,CE15F60K000,20171129183654,
SWISS BUTCHERY (2013) PRIVATE LIMITED,1.3317611,103.80658689,GREENWOOD AVENUE,30,,289230,CE07705A000,20171129183654,
COLD STORAGE SINGAPORE (1983) PTE LTD,1.30358269,103.76528452,WEST COAST ROAD,154,,127371,SW08807K000,20171129183654,
PRIME SUPERMARKET LIMITED,1.30836527,103.86091279,KING GEORGE'S AVENUE,803,154,200803,E02042P000,20171129183653,
PRIME SUPERMARKET LIMITED,1.34873284,103.93401024,TAMPINES STREET 81,823,160,520823,S02040X000,20171129183653,
COLD STORAGE SINGAPORE (1983) PTE LTD,1.43600784,103.78568873,WOODLANDS SQUARE,1,31/32,738099,NW11384E000,20171129183654,
COLD STORAGE SINGAPORE (1983) PTE LTD,1.30684883,103.78821454,VISTA EXCHANGE GREEN,1,,138617,SW12J97L000,20171129183654,
VIVA CORP SERVICES PTE. LTD.,1.33733862,103.90373509,KAKI BUKIT ROAD 3,23,2,415812,NE14190K000,20180711174048,
MCP FAIRMART PTE LTD,1.35925941,103.75069464,BUKIT BATOK STREET 31,BLK 371,324,650371,J92067N000,20180222094454,
ROSWELL ENTERPRISE PTE LTD,1.33183241,103.80649242,GREENWOOD AVENUE,34,,289236,B03078N000,20171129183654,
MD SYDUR RAHMAN,1.29501369,103.62672926,TUAS SOUTH STREET 5,13,1,637555,SW08047V000,20180711174048,
BHANDARI INTERNATIONAL PTE. LTD.,1.45132505,103.79109518,WOODLANDS INDUSTRIAL PARK E5 (PART OF),280,47,757322,NW17277E000,20180222094454,
COLD STORAGE SINGAPORE (1983) PTE LTD,1.30119131,103.90511359,MARINE PARADE ROAD,80,27/62,449269,E02196C000,20171129183654,
SHENG SIONG SUPERMARKET PTE LTD,1.32546808,103.72522155,YUAN CHING ROAD,3,,618642,C02050X000,20180711174048,
COLD STORAGE SINGAPORE (1983) PTE LTD,1.35949664,103.88507993,HOUGANG STREET 21,205,133,530205,S02024X000,20171129183653,
COLD STORAGE SINGAPORE (1983) PTE LTD,1.34922419,103.93491252,TAMPINES STREET 81,829,284/8,520829,S02038E000,20171129183654,
COLD STORAGE SINGAPORE (1983) PTE LTD,1.31867576,103.89255061,PAYA LEBAR ROAD,60,1/5,409051,SE14A83A000,20180222094454,
MEAT THE BUTCHER PTE. LTD.,1.32437351,103.80935794,BUKIT TIMAH ROAD,615,,269716,C00033N000,20171129183654,
CHD @ SOON LEE PTE. LTD.,1.3321229,103.69907027,SOON LEE ROAD,51,51A,628088,SW08A55C000,20180711174048,
7SEVEN PTE. LTD.,1.45605973,103.78643692,NORTH COAST AVENUE,51,3,756992,NW14561E000,20180222094454,
IROHA INTERNATIONAL PTE. LTD.,1.30074756,103.84504763,ORCHARD ROAD,68,17,238839,CE16I13V000,20171129183653,
HAO MART PTE. LTD.,1.43359514,103.83968538,YISHUN RING ROAD,239,1150,760239,B85098V000,20180711174048,
NTUC FAIRPRICE CO-OPERATIVE LTD,1.34837105,103.94812893,TAMPINES STREET 11,107,353/9,521107,S02053J000,20190124162920,
NTUC FAIRPRICE CO-OPERATIVE LTD,1.39219777,103.90447161,RIVERVALE CRESCENT,11,1,545082,S02054E000,20190124162920,
COLD STORAGE SINGAPORE (1983) PTE LTD,1.35067551,103.87186162,SERANGOON CENTRAL,23,44/45,556083,SE10579K000,20171129183654,
LITTLE FARMS PTE. LTD.,1.29301786,103.82694081,RIVER VALLEY ROAD,491,20,248371,CE05380X000,20171129183653,
COLD STORAGE SINGAPORE (1983) PTE LTD,1.33899462,103.79313381,TURF CLUB ROAD,200,,287994,W02140C000,20180711174048,
COLD STORAGE SINGAPORE (1983) PTE LTD,1.34962234,103.8498817,BISHAN STREET 13,512,524,570512,CE09512V000,20171129183653,
COLD STORAGE SINGAPORE (1983) PTE LTD,1.43084007,103.79341633,WOODLANDS DRIVE 44,548,37/38,730548,B02035A000,20171129183654,
SEOUL BUTCHERY PTE. LTD.,1.34207496,103.7746328,YUK TONG AVENUE,13,,596318,SW18715E000,20180711174048,
NAWAS GLOBAL PTE. LTD.,1.27164226,103.63351228,TUAS SOUTH STREET 12,3,16,636947,SW16224E000,20171129183653,
THE BUTCHER (SINGAPORE) PTE. LTD.,1.31192196,103.79684405,JALAN MERAH SAGA,44,50,278116,B03074A000,20171129183653,
COLD STORAGE SINGAPORE (1983) PTE LTD,1.30074756,103.84504763,ORCHARD ROAD,68,15/16,238839,W02088A000,20171129183654,
NTUC FAIRPRICE CO-OPERATIVE LTD,1.37976754,103.93620757,PASIR RIS STREET 72,734,37,510734,S98084K000,20190124162920,
NTUC FAIRPRICE CO-OPERATIVE LTD,1.36032332,103.95312597,TAMPINES STREET 44,475,145,520475,S02052K000,20190124162920,
COLD STORAGE SINGAPORE (1983) PTE LTD,1.30014248,103.85578698,VICTORIA STREET,230,16,188024,W02075K000,20171129183653,
V SURESH KUMAR,1.45982817,103.82007345,ADMIRALTY ROAD WEST - LODGE 1,51,,757443,NW12H40C000,20180711174048,
NTUC FAIRPRICE CO-OPERATIVE LTD,1.33166183,103.85048301,LORONG 4 TOA PAYOH,192,672,310192,S02051L000,20190124162920,
COLD STORAGE SINGAPORE (1983) PTE LTD,1.30372322,103.83524031,ORCHARD ROAD,290,14/15,238859,W02070V000,20171129183654,
NTUC FAIRPRICE CO-OPERATIVE LTD,1.33296549,103.84705035,LORONG 6 TOA PAYOH,500,,310500,S02103A000,20190124162920,
NTUC FAIRPRICE CO-OPERATIVE LTD,1.31553965,103.8987649,JOO CHIAT ROAD,2,1139,420002,SE04012L000,20190124162920,
NTUC FAIRPRICE CO-OPERATIVE LTD,1.38493202,103.90155803,RIVERVALE DRIVE,118,8,540118,S02055C000,20190124162920,
COLD STORAGE SINGAPORE (1983) PTE LTD,1.24775862,103.8419211,OCEAN WAY,31,26/27,98375,SW12N25V000,20171129183654,
NTUC FAIRPRICE CO-OPERATIVE LTD,1.35437074,103.98516965,AIRPORT BOULEVARD,65,10,819663,SE07559P000,20190124162920,
LIN POH LING,1.34064293,103.8543345,LORONG 8 TOA PAYOH,212,43/45,310212,SE06616X000,20171129183654,
SADIA SUPERMARKET & TRADING (S) PTE. LTD.,1.27030978,103.63416392,TUAS SOUTH STREET 13,12,20/21,636937,SW16901A000,20171129183654,
COLD STORAGE SINGAPORE (1983) PTE LTD,1.29225959,103.84256103,CLEMENCEAU AVENUE,81,18,239917,W02096A000,20171129183653,
POPULAR SUPERMARKET PTE LTD,1.27030978,103.63416392,TUAS SOUTH STREET 13,12,18/19,636937,SW16942C000,20171129183654,
RAW MARKET PTE. LTD.,1.37558831,103.96083973,PASIR RIS LINK,11,48,518180,NE15760A000,20171129183653,
COLD STORAGE SINGAPORE (1983) PTE LTD,1.31943618,103.82734585,BUKIT TIMAH ROAD,383,09A,259727,CE10B87J000,20171129183654,
SADIA MINIMART PTE LTD,1.40852997,103.75940617,MANDAI ESTATE,11,16,729908,NW15751L000,20171129183653,
NTUC FAIRPRICE CO-OPERATIVE LTD,1.35466902,103.83091979,UPPER THOMSON ROAD,301,25,574408,S02056B000,20190124162920,
NTUC FAIRPRICE CO-OPERATIVE LTD,1.30782737,103.88476386,JALAN TIGA,41,5,390041,SE04130B000,20190124162920,
PHAN NEE INVESTMENTS (S) PTE LTD,1.37761084,103.71840375,OLD CHOA CHU KANG ROAD,500,21,698924,SW16E98J000,20171129183653,
MEIDI-YA SINGAPORE CO (PTE) LTD,1.29151479,103.8445863,RIVER VALLEY ROAD,177,17,179030,W02094C000,20171129183653,
HAO MART PTE. LTD.,1.3131751,103.88364667,GEYLANG ROAD,448/450,,389407,SE18184V000,20180711174048,
COLD STORAGE SINGAPORE (1983) PTE LTD,1.38529556,103.76617053,JELAPANG ROAD,524A,13/18,671524,B02011P000,20171129183654,
SHENG SIONG SUPERMARKET PTE LTD,1.32213636,103.7382928,TEBAN GARDENS ROAD,61,21,600061,C02080E000,20171129183653,
NTUC FAIRPRICE CO-OPERATIVE LTD,1.35722282,103.84378526,BISHAN STREET 24,279,62/64,570279,S94081C000,20190124162920,
COLD STORAGE SINGAPORE (1983) PTE LTD,1.33177582,103.94620124,UPPER CHANGI ROAD,430,47,487048,SE14377P000,20171129183653,
COLD STORAGE SINGAPORE (1983) PTE LTD,1.27737236,103.8528448,STRAITS VIEW,5,15/16,18935,CE17J36N000,20171129183654,
NTUC FAIRPRICE CO-OPERATIVE LTD,1.32397688,103.91068966,LENGKONG TIGA,110,233/5,410110,S91085V000,20190124162920,
COLD STORAGE SINGAPORE (1983) PTE LTD,1.29380236,103.83175791,KIM SENG PROMENADE,1,18/19,237994,W02068J000,20171129183654,
NTUC FAIRPRICE CO-OPERATIVE LTD,1.30385031,103.90285038,EAST COAST ROAD,30,6/9,428751,SE13U91V000,20190124162920,
NTUC FAIRPRICE CO-OPERATIVE LTD,1.31485323,103.7642482,COMMONWEALTH AVENUE WEST,3155,,129588,SW10A16E000,20190124162920,
NTUC FAIRPRICE CO-OPERATIVE LTD,1.33432515,103.96238931,CHANGI BUSINESS PARK CENTRAL 1,5,8/11,486038,SE11947P000,20190124162920,
NTUC FAIRPRICE CO-OPERATIVE LTD,1.35519094,103.98875098,AIRPORT BOULEVARD,60,29,819643,SE13U39E000,20190124162920,
NTUC FAIRPRICE CO-OPERATIVE LTD,1.28112228,103.81003132,DEPOT ROAD,108,1,100108,SW04158X000,20190124162920,
NTUC FAIRPRICE CO-OPERATIVE LTD,1.31188596,103.75908094,WEST COAST DRIVE,502,41,120502,SW12O05A000,20190124162920,
NTUC FAIRPRICE CO-OPERATIVE LTD,1.34833335,103.72430733,JURONG WEST STREET 41,498,,640498,SW12H20A000,20190124162920,
LAMIAH ENTERPRISE PTE. LTD.,1.31146785,103.63034009,TECH PARK CRESCENT,5,2,638127,SW09752V000,20190124162920,
NTUC FAIRPRICE CO-OPERATIVE LTD,1.34770148,103.75704459,BUKIT BATOK EAST AVENUE 3,280,315,650280,SW13Q24X000,20190124162920,
COLD STORAGE SINGAPORE (1983) PTE LTD,1.26389582,103.82158925,HARBOURFRONT WALK,1,23,98585,SW06590A000,20190124162920,
NTUC FAIRPRICE CO-OPERATIVE LTD,1.31427861,103.77135057,CLEMENTI AVENUE 2,352,141,120352,SW12F58E000,20190124162920,
NTUC FAIRPRICE CO-OPERATIVE LTD,1.34270619,103.9530245,SIMEI STREET 6,3,1,528833,SE14775X000,20190124162920,
NTUC FAIRPRICE CO-OPERATIVE LTD,1.32424555,103.94156871,NEW UPPER CHANGI ROAD,57,1334,461057,SE13S71X000,20190124162920,
NTUC FAIRPRICE CO-OPERATIVE LTD,1.30476357,103.7816972,DOVER CRESCENT,28,83,130028,SW07481A000,20190124162920,
JMD RETAIL PTE. LTD.,1.30416447,103.89632702,TANJONG KATONG ROAD,330,,437106,SE18544L000,20190124162920,
NTUC FAIRPRICE CO-OPERATIVE LTD,1.33653868,103.88876271,TAI SENG STREET,18,13,539775,SE17082P000,20190124162920,
NTUC FAIRPRICE CO-OPERATIVE LTD,1.3211898,103.90326628,EUNOS CRESCENT,5,2619,400005,SE09706N000,20190124162920,
NTUC FAIRPRICE CO-OPERATIVE LTD,1.27338253,103.80893482,TELOK BLANGAH STREET 32,78A,1,101078,SW11452C000,20190124162920,
SHINVA AGRO FOODS PTE. LTD.,1.3110024,103.63157233,TECH PARK CRESCENT,11,3,638121,SW14824J000,20190124162920,
NTUC FAIRPRICE CO-OPERATIVE LTD,1.33233468,103.93805129,BEDOK NORTH STREET 4,89,77/79,460089,SE11071C000,20190124162920,
NTUC FAIRPRICE CO-OPERATIVE LTD,1.38003058,103.75311842,TECK WHYE LANE,140,351,680140,SW08821N000,20190124162920,
NTUC FAIRPRICE CO-OPERATIVE LTD,1.33326818,103.74017674,JURONG EAST CENTRAL 1,2,12,609731,SW12C98J000,20190124162920,
NTUC FAIRPRICE CO-OPERATIVE LTD,1.31886941,103.89473136,EUNOS ROAD 8,10,101,408600,SE17481P000,20190124162920,
NTUC FAIRPRICE CO-OPERATIVE LTD,1.33177055,103.8792945,MACPHERSON ROAD,401,22/29,368125,SE16122V000,20190124162920,
NTUC FAIRPRICE CO-OPERATIVE LTD,1.35067551,103.87186162,SERANGOON CENTRAL,23,42,556083,SE10564B000,20190124162920,
NTUC FAIRPRICE CO-OPERATIVE LTD,1.36650698,103.74684712,BUKIT BATOK WEST AVENUE 7,2,10,659003,SW14633X000,20190124162920,
SHINVA AGRO FOODS PTE. LTD.,1.30091147,103.62778889,TUAS VIEW WALK 1,115,,637734,SW14B28C000,20190124162920,
NTUC FAIRPRICE CO-OPERATIVE LTD,1.33491977,103.96365391,CHANGI BUSINESS PARK AVENUE 1,8,,486018,SE12G19X000,20190124162920,
NTUC FAIRPRICE CO-OPERATIVE LTD,1.32477208,103.92926766,NEW UPPER CHANGI ROAD,311,60,467360,SE13135L000,20190124162920,
NTUC FAIRPRICE CO-OPERATIVE LTD,1.30384328,103.87275071,STADIUM PLACE,1,29,397628,SE14467N000,20190124162920,
NTUC FAIRPRICE CO-OPERATIVE LTD,1.34259104,103.7391995,JURONG EAST STREET 24,249,106,600249,SW16D83E000,20190124162920,
NTUC FAIRPRICE CO-OPERATIVE LTD,1.33931504,103.705351,JURONG WEST CENTRAL 3,63,,648331,SW08A59X000,20190124162920,
NTUC FAIRPRICE CO-OPERATIVE LTD,1.39712886,103.74732972,CHOA CHU KANG DRIVE,61,1,689715,SW09285K000,20190124162920,
NTUC FAIRPRICE CO-OPERATIVE LTD,1.3973019,103.74655807,CHOA CHU KANG NORTH 6,21,1/7,689578,SW09032C000,20190124162920,
NTUC FAIRPRICE CO-OPERATIVE LTD,1.29277433,103.78408402,LOWER KENT RIDGE ROAD,1,16,119082,SW13245V000,20190124162920,
NTUC FAIRPRICE CO-OPERATIVE LTD,1.33320022,103.74317043,JURONG GATEWAY ROAD,50,21/22,608549,SW13T12J000,20190124162920,
PHAN NEE INVESTMENTS (S) PTE LTD,1.3719328,103.72085742,OLD CHOA CHU KANG ROAD,500,2,698928,SW16815P000,20190124162920,
NTUC FAIRPRICE CO-OPERATIVE LTD,1.32460665,103.67809637,JOO KOON CIRCLE,1,21,629117,SW14951X000,20190124162920,
NTUC FAIRPRICE CO-OPERATIVE LTD,1.31414997,103.88854491,GEYLANG ROAD,612-620,,389551,SE11577E000,20190124162920,
NTUC FAIRPRICE CO-OPERATIVE LTD,1.32052027,103.74265152,TEBAN GARDENS ROAD,37,,600037,SW15968N000,20190124162920,
NTUC FAIRPRICE CO-OPERATIVE LTD,1.39207388,103.74309958,CHOA CHU KANG STREET 51,533,11,680533,SW15796X000,20190124162920,
NTUC FAIRPRICE CO-OPERATIVE LTD,1.33253591,103.86703684,POTONG PASIR AVENUE 2,6,1,358361,SE14441L000,20190124162920,
NTUC FAIRPRICE CO-OPERATIVE LTD,1.27367658,103.80112696,ALEXANDRA ROAD,460,,119963,SW11A26P000,20190124162920,
NTUC FAIRPRICE CO-OPERATIVE LTD,1.32099295,103.87039,KALLANG BAHRU,71,531,330071,CE05295K000,20190124162920,
NTUC FAIRPRICE CO-OPERATIVE LTD,1.42919468,103.78113689,WOODLANDS AVENUE 1,30,,739065,B02034B000,20190124162920,
NTUC FAIRPRICE CO-OPERATIVE LTD,1.41698316,103.83521819,YISHUN RING ROAD,849,3703,760849,B02099L000,20190124162920,
NTUC FAIRPRICE CO-OPERATIVE LTD,1.27624053,103.84300612,TANJONG PAGAR PLAZA,5,1,81005,W02092J000,20190124162920,
NTUC FAIRPRICE CO-OPERATIVE LTD,1.33865677,103.77856047,JALAN ANAK BUKIT,1,1,588996,C02036N000,20190124162920,
NTUC FAIRPRICE CO-OPERATIVE LTD,1.42452848,103.84659555,YISHUN RING ROAD,414,1853,760414,B02025C000,20190124162920,
NTUC FAIRPRICE CO-OPERATIVE LTD,1.3665583,103.84162409,ANG MO KIO AVENUE 1,215,877,560215,B98014C000,20190124162920,
NTUC FAIRPRICE CO-OPERATIVE LTD,1.33375343,103.73937139,JURONG EAST STREET 13,135,337,600135,C02037L000,20190124162920,
NTUC FAIRPRICE CO-OPERATIVE LTD,1.28646346,103.82693508,TIONG BAHRU ROAD,302,1,168732,W02072P000,20190124162920,
NTUC FAIRPRICE CO-OPERATIVE LTD,1.3487108,103.74933453,BUKIT BATOK CENTRAL,10,8,659958,C02104B000,20190124162920,
NTUC FAIRPRICE CO-OPERATIVE LTD,1.3455121,103.73121915,JURONG EAST STREET 31,BLK 345,29,600345,C85274C000,20190124162920,
NTUC FAIRPRICE CO-OPERATIVE LTD,1.29301786,103.82694081,RIVER VALLEY ROAD,491,14,248371,CE06044N000,20190124162920,
THE QUALITYMART DEPOT PTE. LTD.,1.28220136,103.80302376,DEPOT ROAD,180,4,109684,SW18581V000,20190124162920,
NTUC FAIRPRICE CO-OPERATIVE LTD,1.44822653,103.81946211,SEMBAWANG DRIVE,30,1/3,757713,B02021L000,20190124162920,
NTUC FAIRPRICE CO-OPERATIVE LTD,1.43755656,103.7951364,WOODLANDS DRIVE 50,888,757,730888,B02024E000,20190124162920,
NTUC FAIRPRICE CO-OPERATIVE LTD,1.34716236,103.74280788,BUKIT BATOK WEST AVENUE 8,166,,650166,C02053L000,20190124162920,
NTUC FAIRPRICE CO-OPERATIVE LTD,1.32512653,103.85105564,BALESTIER ROAD,360,0,329783,W02084J000,20190124162920,
NTUC FAIRPRICE CO-OPERATIVE LTD,1.28645354,103.8082424,JALAN BUKIT MERAH,1,4500,150001,CE05487V000,20190124162920,
NTUC FAIRPRICE CO-OPERATIVE LTD,1.33205938,103.72245289,YUNG KUANG ROAD,63/66,,610063,C02040A000,20190124162920,
SHENG SIONG SUPERMARKET PTE LTD,1.35303825,103.74394845,BUKIT BATOK WEST AVENUE 6,451,10,650451,SW18F69X000,20190124162920,
SHENG SIONG SUPERMARKET PTE LTD,1.375635,103.87199642,SERANGOON NORTH AVENUE 5,19,1/2,554913,CE04561V000,20190124162920,
NTUC FAIRPRICE CO-OPERATIVE LTD,1.33983015,103.70646089,JURONG WEST CENTRAL 2,1,9,648886,C02038K000,20190124162920,
NTUC FAIRPRICE CO-OPERATIVE LTD,1.31536303,103.84943451,CAMBRIDGE ROAD,43,15,210043,CE07320C000,20190124162920,
NTUC FAIRPRICE CO-OPERATIVE LTD,1.43262603,103.7740512,WOODLANDS AVENUE 3,71,1,739044,B02022K000,20190124162920,
NTUC FAIRPRICE CO-OPERATIVE LTD,1.36924891,103.84839924,ANG MO KIO AVENUE 3,53,40,569933,CE06M36N000,20190124162920,
NTUC FAIRPRICE CO-OPERATIVE LTD,1.41103598,103.8440399,ORCHID CLUB ROAD,1,34,769162,B99041L000,20190124162920,
NTUC FAIRPRICE CO-OPERATIVE LTD,1.2927034,103.81095896,DAWSON ROAD,57,1,142057,CE04086K000,20190124162920,
COLD STORAGE SINGAPORE (1983) PTE LTD,1.34813379,103.68541847,STUDENTS WALK,35,,639548,SW18A40J000,20190124162920,
NTUC FAIRPRICE CO-OPERATIVE LTD,1.29727532,103.83853393,KILLINEY ROAD,131,"01,02",239571,W02239E000,20190124162920,
NTUC FAIRPRICE CO-OPERATIVE LTD,1.33504202,103.72026802,YUNG SHENG ROAD,399,,610399,C02041V000,20190124162920,
NTUC FAIRPRICE CO-OPERATIVE LTD,1.28977814,103.82679376,HAVELOCK ROAD,50,755,160050,W02086C000,20190124162920,
NTUC FAIRPRICE CO-OPERATIVE LTD,1.38054244,103.76399395,JELEBU ROAD,1,15,677743,B02020N000,20190124162920,
NTUC FAIRPRICE CO-OPERATIVE LTD,1.31248299,103.76547676,CLEMENTI AVENUE 3,451,307,120451,C02035P000,20190124162920,
NTUC FAIRPRICE CO-OPERATIVE LTD,1.32379608,103.85567063,LORONG LIMAU,80,191,320080,CE08H32N000,20190124162920,
HONESTBEE PTE. LTD.,1.27604519,103.79718734,BOON LEAT TERRACE,34,,119866,SW18G66X000,20190124162920,
NTUC FAIRPRICE CO-OPERATIVE LTD,1.3126545,103.8725418,UPPER BOON KENG ROAD,5,5,380005,CE07D83B000,20190124162920,
NTUC FAIRPRICE CO-OPERATIVE LTD,1.32383513,103.80999958,BUKIT TIMAH ROAD,587,,269707,C02034X000,20190124162920,
NTUC FAIRPRICE CO-OPERATIVE LTD,1.32042968,103.84389213,SINARAN DRIVE,10,47/48,307506,CE06L48L000,20190124162920,
NTUC FAIRPRICE CO-OPERATIVE LTD,1.38509601,103.76021844,SENJA ROAD,628,1,670628,B03099C000,20190124162920,
NTUC FAIRPRICE CO-OPERATIVE LTD,1.2831195,103.81764287,BUKIT MERAH CENTRAL,166,3527,150166,W02083K000,20190124162920,
NTUC FAIRPRICE CO-OPERATIVE LTD,1.31139349,103.85648712,KITCHENER ROAD,180,9/10,208539,CE09H10X000,20190124162920,
NTUC FAIRPRICE CO-OPERATIVE LTD,1.28480735,103.82929801,KIM TIAN ROAD,18 /20,,169252,CE08015J000,20190124162920,
NTUC FAIRPRICE CO-OPERATIVE LTD,1.42952522,103.83499514,YISHUN AVENUE 2,301,2,769093,B02093B000,20190124162920,
NTUC FAIRPRICE CO-OPERATIVE LTD,1.37089456,103.85639651,ANG MO KIO AVENUE 10,574,1847,560574,CE16K18V000,20190124162920,
NTUC FAIRPRICE CO-OPERATIVE LTD,1.3259407,103.93164003,BEDOK NORTH STREET 1,212,147,460212,E02035N000,20190124162920,
NTUC FAIRPRICE CO-OPERATIVE LTD,1.31230753,103.92523454,EAST COAST ROAD,934,,459125,E83157K000,20190124162920,
U STARS SUPERMARKET PTE. LTD.,1.35126411,103.92936384,TAMPINES AVENUE 8,878C,65,523878,NE17390X000,20190124162920,
NTUC FAIRPRICE CO-OPERATIVE LTD,1.27707708,103.83142586,SILAT AVENUE,150,44,160150,CE11F41C000,20190124162920,
NTUC FAIRPRICE CO-OPERATIVE LTD,1.3552429,103.93162364,TAMPINES STREET 86,872C,1,523872,NE17563L000,20190124162920,
NTUC FAIRPRICE CO-OPERATIVE LTD,1.32708486,103.84647647,AH HOOD ROAD,20,1,329984,CE13O90C000,20190124162920,
NTUC FAIRPRICE CO-OPERATIVE LTD,1.32176645,103.88667279,ALJUNIED AVENUE 2,114,75,380114,E02034P000,20190124162920,
NTUC FAIRPRICE CO-OPERATIVE LTD,1.39213828,103.87249056,JALAN KAYU,447A,2,791447,CE13R25C000,20190124162920,
PAN PACIFIC INTERNATIONAL HOLDINGS PTE. LTD.,1.31139349,103.85648712,KITCHENER ROAD,180,6,208539,CE18T88K000,20190124162920,
"JEWISH WELFARE BOARD, SINGAPORE, THE",1.29827329,103.85059951,WATERLOO STREET,24,1,187950,CE11H82X000,20190124162920,
YOUR GROCER PRIVATE LIMITED,1.28807688,103.82708128,JALAN BUKIT HO SWEE,34,870,160034,CE18R71X000,20190124162920,
NTUC FAIRPRICE CO-OPERATIVE LTD,1.34528144,103.94534429,TAMPINES STREET 11,138,136,521138,NE04047K000,20190124162920,
COLD STORAGE SINGAPORE (1983) PTE LTD,1.35431556,103.94501946,TAMPINES CENTRAL 1,10,1/2,529536,NE09027A000,20190124162920,
NTUC FAIRPRICE CO-OPERATIVE LTD,1.37177996,103.89416538,HOUGANG AVENUE 10,100,1,538767,NE09263B000,20190124162920,
COLD STORAGE SINGAPORE (1983) PTE LTD,1.27461794,103.84431956,ENGGOR STREET,16,,79717,CE14G71E000,20190124162920,
NTUC FAIRPRICE CO-OPERATIVE LTD,1.32855657,103.88534991,CIRCUIT ROAD,77,464/6,370077,E95315V000,20190124162920,
NTUC FAIRPRICE CO-OPERATIVE LTD,1.38506836,103.74495039,CHOA CHU KANG AVENUE 4,21,3,689812,J96145K000,20190124162920,
NTUC FAIRPRICE CO-OPERATIVE LTD,1.36321586,103.83544536,SIN MING AVENUE,410A,2,571410,CE17E43B000,20190124162920,
NTUC FAIRPRICE CO-OPERATIVE LTD,1.36516071,103.86504186,MAJU AVENUE,1,11/14,556679,NE10310X000,20190124162920,
NTUC FAIRPRICE CO-OPERATIVE LTD,1.34634819,103.71242932,BOON LAY PLACE,221,200,640221,J02013A000,20190124162920,
NTUC FAIRPRICE CO-OPERATIVE LTD,1.37714073,103.95359909,PASIR RIS CLOSE,1,127,519599,NE08058P000,20190124162920,
NTUC FAIRPRICE CO-OPERATIVE LTD,1.38621835,103.8929955,SENGKANG EAST AVENUE,279,6,540279,CE15695V000,20190124162920,
NTUC FAIRPRICE CO-OPERATIVE LTD,1.28668027,103.81376634,LENGKOK BAHRU,20,13,159053,CE15G35E000,20190124162920,
NTUC FAIRPRICE CO-OPERATIVE LTD,1.3714092,103.84708288,ANG MO KIO AVENUE 6,712,4056,560712,CE11N90C000,20190124162920,
NTUC FAIRPRICE CO-OPERATIVE LTD,1.35542176,103.93431523,TAMPINES STREET 83,866A,1,521866,NE04114A000,20190124162920,
COLD STORAGE SINGAPORE (1983) PTE LTD,1.29487905,103.8576755,TEMASEK BOULEVARD,3,,38983,CE13Z03L000,20190124162920,
NTUC FAIRPRICE CO-OPERATIVE LTD,1.30836165,103.90798882,EAST COAST ROAD,239/255,,428932,E98161V000,20190124162920,
NTUC FAIRPRICE CO-OPERATIVE LTD,1.30880609,103.86131196,FRENCH ROAD,808,1,200808,CE13Z98K000,20190124162920,
NTUC FAIRPRICE CO-OPERATIVE LTD,1.39418409,103.91297644,PUNGGOL FIELD,168,1,820168,NE04107V000,20190124162920,
NTUC FAIRPRICE CO-OPERATIVE LTD,1.37743006,103.90371287,UPPER SERANGOON VIEW,476,18,530476,NE15467C000,20190124162920,
NTUC FAIRPRICE CO-OPERATIVE LTD,1.39139306,103.87606766,SENGKANG WEST AVENUE,33,24,797653,CE14L50J000,20190124162920,
SF (313) PTE. LTD.,1.29487905,103.8576755,TEMASEK BOULEVARD,3,616,38983,CE17P14L000,20190124162920,
NTUC FAIRPRICE CO-OPERATIVE LTD,1.40461003,103.90866561,PUNGGOL DRIVE,612,6,820612,NE12B79A000,20190124162920,
NTUC FAIRPRICE CO-OPERATIVE LTD,1.3697994,103.8730358,SERANGOON NORTH AVENUE 1,152B,384,552152,E02039E000,20190124162920,
NTUC FAIRPRICE CO-OPERATIVE LTD,1.30141956,103.90711266,MARINE PARADE CENTRAL,6,,449411,E02096K000,20190124162920,
NTUC FAIRPRICE CO-OPERATIVE LTD,1.30585583,103.83298436,SCOTTS ROAD,6,,228209,CE11M39P000,20190124162920,
NTUC FAIRPRICE CO-OPERATIVE LTD,1.35349616,103.93968359,TAMPINES AVENUE 4,51,1,528523,NE16640E000,20190124162920,
COLD STORAGE SINGAPORE (1983) PTE LTD,1.28022769,103.8533493,MARINA BOULEVARD,8A,44-50,18984,CE18T11J000,20190124162920,
NTUC FAIRPRICE CO-OPERATIVE LTD,1.38233698,103.89360784,COMPASSVALE LINK,BLK 277C,13,543277,NE08150C000,20190124162920,
NTUC FAIRPRICE CO-OPERATIVE LTD,1.27458822,103.84347074,TRAS STREET,100,1,79027,CE12H50C000,20190124162920,
NTUC FAIRPRICE CO-OPERATIVE LTD,1.31909344,103.86390533,BENDEMEER ROAD,30,871,330030,CE17K55B000,20190124162920,
NTUC FAIRPRICE CO-OPERATIVE LTD,1.33889072,103.84899332,LORONG 4 TOA PAYOH,95,68,310095,CE17L02A000,20190124162920,
SHENG SIONG SUPERMARKET PTE LTD,1.30203803,103.79802175,TANGLIN HALT ROAD,88,10,141088,CE07783P000,20171129183653,
NTUC FAIRPRICE CO-OPERATIVE LTD,1.37834971,103.76274118,PETIR ROAD,17,67,678278,NW17097K000,20190124162920,
NTUC FAIRPRICE CO-OPERATIVE LTD,1.44956648,103.81864114,SEMBAWANG WAY,355,1,750355,NW07277P000,20190124162920,
NTUC FAIRPRICE CO-OPERATIVE LTD,1.42799996,103.83614204,NORTHPOINT DRIVE,1,103,768019,NW17872B000,20190124162920,
SHENG SIONG SUPERMARKET PTE LTD,1.32463573,103.93106884,NEW UPPER CHANGI ROAD,209,631,460209,SE04069A000,20171129183653,
NTUC FAIRPRICE CO-OPERATIVE LTD,1.30849289,103.78459811,GHIM MOH LINK,29A,1,271029,NW18091N000,20190124162920,
NG TOH TET,1.35151847,103.71949649,JURONG WEST AVENUE 1,442,756,640442,J02016P000,20171129183653,
NTUC FAIRPRICE CO-OPERATIVE LTD,1.43106395,103.79045409,WOODLANDS AVENUE 1,570B,6,732570,NW13K05E000,20190124162920,
SONG FISH DEALER PTE LTD,1.32365173,103.92210296,CHAI CHEE ROAD,750,9,469000,SE16670X000,20171129183653,
COLD STORAGE SINGAPORE (1983) PTE LTD,1.33362232,103.85097786,LORONG 4 TOA PAYOH,181,602,310181,S02057A000,20171129183653,
NTUC FAIRPRICE CO-OPERATIVE LTD,1.40287845,103.91319575,PUNGGOL DRIVE,681,1,820681,NE18169P000,20190124162920,
CHUA & NG PTE. LTD.,1.33205095,103.91414508,BEDOK RESERVOIR ROAD,632,824,470632,NE08405X000,20171129183653,
OH BENG GUAN,1.36393821,103.75189601,BUKIT BATOK WEST AVENUE 5,395A,10,651395,SW06322N000,20171129183653,
U STARS PTE. LTD.,1.41517634,103.83983039,YISHUN AVENUE 4,507,9,760507,NW17212X000,20171129183653,
COLD STORAGE SINGAPORE (1983) PTE LTD,1.30523472,103.90501493,EAST COAST ROAD,112,12,428802,SE11930L000,20171129183653,
NTUC FAIRPRICE CO-OPERATIVE LTD,1.34888844,103.84969199,BISHAN STREET 13,510,520,570510,S02021B000,20190124162920,
NTUC FAIRPRICE CO-OPERATIVE LTD,1.3736183,103.88574886,HOUGANG AVENUE 4,682,310,530682,S02027L000,20190124162920,
NTUC FAIRPRICE CO-OPERATIVE LTD,1.41799926,103.84123647,YISHUN RING ROAD,598,1,768698,NW18192E000,20190124162920,
HAO MART PTE. LTD.,1.33545353,103.86338798,POTONG PASIR AVENUE 1,120,812,350120,E85090E000,20171129183653,
COLD STORAGE SINGAPORE (1983) PTE LTD,1.28692006,103.8186736,REDHILL CLOSE,86,610,150086,W72014K000,20171129183653,
SHENG SIONG SUPERMARKET PTE LTD,1.38060512,103.76004159,WOODLANDS ROAD,1,7,677899,NW11767E000,20190124162920,
NTUC FAIRPRICE CO-OPERATIVE LTD,1.35757558,103.88403846,HOUGANG STREET 21,202,0,530202,S02028K000,20190124162920,
NTUC FAIRPRICE CO-OPERATIVE LTD,1.37566728,103.87945026,HOUGANG STREET 91,1,1,538692,S02029J000,20190124162920,
CUTECH GREEN VENTURES PTE. LTD.,1.45334362,103.7956824,WOODLANDS INDUSTRIAL PARK E1,10,,757733,NW17699N000,20190124162920,
L M MEAT PTE. LTD.,1.32365173,103.92210296,CHAI CHEE ROAD,750,10,469000,SE16607K000,20171129183653,
COLD STORAGE SINGAPORE (1983) PTE LTD,1.38739537,103.86913598,SELETAR ROAD,1,11,807011,CE11P32L000,20171129183653,
NTUC FAIRPRICE CO-OPERATIVE LTD,1.37231186,103.89366162,HOUGANG AVENUE 10,90,7,538766,S02026N000,20190124162920,
NTUC FAIRPRICE CO-OPERATIVE LTD,1.43991608,103.80070121,WOODLANDS DRIVE 71,676,2,730676,NW17908L000,20190124162920,
SHENG SIONG SUPERMARKET PTE LTD,1.43109807,103.79850763,WOODLANDS DRIVE 16,573,1,730573,NW18778K000,20190124162920,
NTUC FAIRPRICE CO-OPERATIVE LTD,1.45384519,103.81954335,CANBERRA ROAD,511,3,750511,NW06546V000,20190124162920,
LOCH GROCER PTE. LTD.,1.34995541,103.71770481,JURONG WEST AVENUE 1,503,847,640503,SW09133X000,20171129183653,
NTUC FAIRPRICE CO-OPERATIVE LTD,1.37244981,103.9497157,PASIR RIS CENTRAL STREET 3,1,10,518457,S02034N000,20190124162920,
NTUC FAIRPRICE CO-OPERATIVE LTD,1.35023943,103.84847763,BISHAN PLACE,9,20,579837,S02023V000,20190124162920,
COLD STORAGE SINGAPORE (1983) PTE LTD,1.3646254,103.84767704,ANG MO KIO STREET 31,316B,11,563316,CE05096V000,20171129183653,
NTUC FAIRPRICE CO-OPERATIVE LTD,1.43507789,103.78661962,SOUTH WOODLANDS DRIVE,900,1,730900,NW04127A000,20190124162920,
PRIME SUPERMARKET LIMITED,1.43998365,103.80129311,WOODLANDS AVENUE 6,678,716,730678,B02027A000,20171129183653,
NTUC FAIRPRICE CO-OPERATIVE LTD,1.33740471,103.92177474,BEDOK RESERVOIR ROAD,745,3015,470745,S02049A000,20190124162920,
TANESEI TRADING PTE. LTD.,1.30684883,103.78821454,VISTA EXCHANGE GREEN,1,28,138617,SW12J94X000,20171129183653,
NTUC FAIRPRICE CO-OPERATIVE LTD,1.35267232,103.94438798,TAMPINES CENTRAL 5,4,12,529510,S02039C000,20190124162920,
CULINA PTE LTD,1.30417512,103.80952614,DEMPSEY ROAD,8,13,247696,CE07411A000,20171129183653,
NTUC FAIRPRICE CO-OPERATIVE LTD,1.30918211,103.79254749,HOLLAND DRIVE,36,3,270036,NW08477X000,20190124162920,
SHENG SIONG SUPERMARKET PTE LTD,1.36700054,103.96461778,PASIR RIS STREET 21,258,10,510258,NE17023N000,20171129183653,
IROHA INTERNATIONAL PTE. LTD.,1.28499884,103.84469709,NEW BRIDGE ROAD,133,11,59413,CE17F56J000,20171129183653,
PRIME SUPERMARKET LIMITED,1.34872643,103.69829201,JURONG WEST STREET 75,763,1,640763,J94081B000,20171129183653,
LITTLE FARMS PTE. LTD.,1.27672493,103.8451554,WALLICH STREET,7,6,78884,CE16M43E000,20180711174048,
COLD STORAGE SINGAPORE (1983) PTE LTD,1.40053114,103.91053693,PUNGGOL CENTRAL,622D,6,824622,NE13M11K000,20171129183653,
COLD STORAGE SINGAPORE (1983) PTE LTD,1.28263438,103.82559576,JALAN MEMBINA,26,7,161026,CE11C49E000,20171129183653,
SHENG SIONG SUPERMARKET PTE LTD,1.38400582,103.77102961,FAJAR ROAD,446,1,670446,NW17421C000,20171129183653,
SHENG SIONG SUPERMARKET PTE LTD,1.39779874,103.88169881,FERNVALE STREET,473,6,790473,CE16913J000,20171129183653,
MAHOTA FOOD PTE. LTD.,1.35236113,103.94378482,TAMPINES CENTRAL 5,2,7,529509,S02041P000,20180711174048,
ANG MO SUPERMARKET PTE LTD,1.39946117,103.9160545,PUNGGOL DRIVE,639,1,820639,NE10113B000,20171129183653,
COLD STORAGE SINGAPORE (1983) PTE LTD,1.37904776,103.77293749,BANGKIT ROAD,256,69,670256,B02060V000,20171129183653,
COLD STORAGE SINGAPORE (1983) PTE LTD,1.34159108,103.69702008,JURONG WEST STREET 61,638,1,640638,SW05008N000,20171129183653,
COLD STORAGE SINGAPORE (1983) PTE LTD,1.35018916,103.74902198,BUKIT BATOK CENTRAL LINK,1,1,658713,C02046K000,20171129183653,
COLD STORAGE SINGAPORE (1983) PTE LTD,1.3626745,103.76417292,HILLVIEW RISE,4,7,667979,SW14542A000,20171129183653,
SONG FISH DEALER PTE LTD,1.42969848,103.8357765,YISHUN AVENUE 2,930,5,769098,NW17310P000,20171129183653,
SHENG SIONG SUPERMARKET PTE LTD,1.40371939,103.90613801,PUNGGOL CENTRAL,301,1,820301,NE09359K000,20171129183653,
TOH GUAN MINI MART PTE LTD,1.33832658,103.75353612,TOH GUAN ROAD EAST,19,65,608568,SW06002X000,20171129183653,
COLD STORAGE SINGAPORE (1983) PTE LTD,1.31025542,103.79535044,HOLLAND AVENUE,211,5,278967,W02066L000,20171129183653,
ISETAN (SINGAPORE) LIMITED?,1.33402529,103.74258602,GATEWAY DRIVE,3,1,608532,SW13W88P000,20171129183653,
MM SUNDRY SHOP PTE.LTD.,1.45464655,103.80447674,WOODLANDS SECTOR 1,27,70,738252,NW07726J000,20171129183653,
SHENG SIONG SUPERMARKET PTE LTD,1.30811887,103.78604939,GHIM MOH LINK,25,11,270025,SW12M64L000,20180711174048,
SHENG SIONG SUPERMARKET PTE LTD,1.3473718,103.74369812,BUKIT BATOK WEST AVENUE 8,154A,1,651154,C02033V000,20171129183653,
ARCHANA SUPERMARKET PTE. LTD.,1.32048426,103.72672284,JALAN PAPAN,1,29,619392,SW16856V000,20171129183653,
THE ALASKA GUYS PTE. LTD.,1.31212248,103.91118599,TELOK KURAU ROAD,201,5,423910,SE12D97J000,20171129183653,
TANESEI RETAILING PTE. LTD.,1.35236113,103.94378482,TAMPINES CENTRAL 5,2,6,529509,NE18406E000,20180711174048,
COLD STORAGE SINGAPORE (1983) PTE LTD,1.31654468,103.89428939,GEYLANG ROAD,845,8,400845,E02048C000,20171129183653,
THE SEAFOOD MARKET PLACE (BY SONG FISH) PTE. LTD.,1.31469214,103.89448053,TANJONG KATONG ROAD,11,15,437157,SE18169X000,20180711174048,
COLD STORAGE SINGAPORE (1983) PTE LTD,1.3308174,103.79569236,FIFTH AVENUE,1,5,268802,C02024A000,20171129183653,
HAO MART PTE. LTD.,1.45026202,103.82253472,CANBERRA LINK,505,1,750505,NW16763X000,20171129183653,
"TANG KER AN, TIMOTHY",1.32062506,103.93473423,BEDOK SOUTH ROAD,18,67,460018,SE17401C000,20171129183653,
ISYMI PTE LTD,1.35530903,103.88785719,JALAN PELIKAT,183,12,537643,NE18066E000,20180711174048,
SONG FISH DEALER PTE LTD,1.35236113,103.94378482,TAMPINES CENTRAL 5,2,8,529509,NE18339P000,20180711174048,
U STARS SUPERMARKET PTE. LTD.,1.40322712,103.89538703,SUMANG WALK,218,1,820218,NE16747J000,20171129183653,
FORTUNE SUPERMARKET PTE. LTD.,1.44834154,103.80105715,WOODLANDS CRESCENT,780,1,730780,NW15220L000,20171129183653,
COLD STORAGE SINGAPORE (1983) PTE LTD,1.34239284,103.77625054,UPPER BUKIT TIMAH ROAD,144,1,588177,C02048E000,20171129183653,
U STARS PTE. LTD.,1.37405797,103.74616008,CHOA CHU KANG AVENUE 7,810,1,680810,SW16D52V000,20171129183653,
COLD STORAGE SINGAPORE (1983) PTE LTD,1.33667573,103.78370915,DUNEARN ROAD,896,1,589472,NW15295X000,20171129183653,
COLD STORAGE SINGAPORE (1983) PTE LTD,1.37805614,103.7389318,CHOA CHU KANG AVENUE 3,475,1,680475,J02010E000,20171129183653,
COLD STORAGE SINGAPORE (1983) PTE LTD,1.44053815,103.80097759,WOODLANDS AVENUE 7,70,5,738344,NW08020K000,20171129183653,
SHENG SIONG SUPERMARKET PTE LTD,1.37789203,103.85641198,ANG MO KIO DRIVE,2,12,567720,CE12J32X000,20180711174048,
KADER HASNA MARICAN,1.33314578,103.69524811,KIAN TECK LANE,17,65,627851,J03027B000,20171129183653,
TANESEI RETAILING PTE. LTD.,1.30523472,103.90501493,EAST COAST ROAD,112,9,428802,SE11A69V000,20171129183653,
AL MARCHE PTE LTD,1.28076944,103.85265857,MARINA BOULEVARD,2,5,18987,CE09874X000,20171129183653,
SHENG SIONG SUPERMARKET PTE LTD,1.38824022,103.76957539,SEGAR ROAD,547,6,670547,NW15186C000,20171129183653,
COLD STORAGE SINGAPORE (1983) PTE LTD,1.45000861,103.81411091,ADMIRALTY DRIVE,468B,29,752468,NW09437C000,20171129183653,
MOHAMAD DAMAR HULAN BIN OSMAN,1.31714974,103.90396519,CHANGI ROAD,212,,419735,SE12H46E000,20180222094454,
SHENG SIONG SUPERMARKET PTE LTD,1.43303198,103.84160083,YISHUN AVENUE 9,18,6/10,768897,NW16388B000,20180222094454,
KEK HONG HENG,1.31800981,103.73194891,PENJURU WALK,23,81,608537,SW11512N000,20171129183653,
LIM KING CHEW,1.36271446,103.89398051,HOUGANG AVENUE 3,6,82,530006,S02025P000,20171129183653,
PRIME SUPERMARKET (1996) PTE LTD,1.32062506,103.93473423,BEDOK SOUTH ROAD,18,87,460018,E75097C000,20171129183653,
PRIME SUPERMARKET (1996) PTE LTD,1.34676466,103.67881814,NANYANG AVENUE,50,1/26,639798,SW15D03B000,20180222094454,
MCP FAIRMART PTE LTD,1.33233468,103.93805129,BEDOK NORTH STREET 4,89,107,460089,SE04109X000,20171129183653,
COLD STORAGE SINGAPORE (1983) PTE LTD,1.30197805,103.8397589,ORCHARD ROAD,176,9/11,238843,W89166E000,20180222094454,
HAO MART PTE. LTD.,1.30706068,103.92376973,SIGLAP ROAD,15,1,448912,SE06112L000,20171129183653,
HONG HENG SENG,1.28119738,103.84343733,BANDA STREET,5,92,50005,W02076J000,20180711174048,
PRIME SUPERMARKET LIMITED,1.34857537,103.74270864,BUKIT BATOK STREET 11,159,178,650159,SW04097K000,20171129183653,
VINAYAK TRADERS PTE. LTD.,1.31923811,103.73288248,PENJURU WALK,27,8/9,608538,SW14A33P000,20180222094454,
COLD STORAGE SINGAPORE (1983) PTE LTD,1.33306648,103.93109139,BEDOK NORTH STREET 3,509,121,460509,E02033X000,20171129183653,
COLD STORAGE SINGAPORE (1983) PTE LTD,1.30766862,103.8281644,ORCHARD ROAD,442,1/11,238879,CE15577J000,20180222094454,
COLD STORAGE SINGAPORE (1983) PTE LTD,1.31008119,103.7885329,GHIM MOH ROAD,21,177,270021,C79031J000,20171129183653,
SHENG SIONG SUPERMARKET PTE LTD,1.37829768,103.75407141,TECK WHYE LANE,18,95,680018,SW11423N000,20171129183653,
COLD STORAGE SINGAPORE (1983) PTE LTD,1.3350243,103.74663825,JURONG EAST STREET 21,2,100,609601,C02026X000,20180711174048,
COLD STORAGE SINGAPORE (1983) PTE LTD,1.3127533,103.92365787,FIRST STREET,2,5/16,458278,SE13S89V000,20180222094454,
COLD STORAGE SINGAPORE (1983) PTE LTD,1.35831705,103.74957987,BUKIT BATOK STREET 31,376,116,650376,J02021A000,20171129183653,
COLD STORAGE SINGAPORE (1983) PTE LTD,1.40566048,103.91199128,EDGEFIELD PLAINS,671,1,820671,NE15611B000,20171129183653,
PRIME SUPERMARKET (1996) PTE LTD,1.37743963,103.74438323,CHOA CHU KANG AVENUE 1,253,7/10,680253,J02018L000,20180222094454,
SHENG SIONG SUPERMARKET PTE LTD,1.36968625,103.94792243,PASIR RIS STREET 51,527D,1,514527,NE15276N000,20171129183653,
SWISS BUTCHERY PTE LTD,1.30561167,103.82296295,TANGLIN ROAD,56,2,247964,CE08808B000,20171129183653,
COLD STORAGE SINGAPORE (1983) PTE LTD,1.32000041,103.88736307,ALJUNIED AVENUE 2,118,100,380118,E02045K000,20171129183653,
CAVEMEN PTE. LTD.,1.32696541,103.84367424,JALAN DUSUN,1,9/10,329363,CE17A77E000,20180222094454,
COLD STORAGE SINGAPORE (1983) PTE LTD,1.38085035,103.8793091,BUANGKOK CRESCENT,982,1,530982,S02185J000,20171129183653,
SHENG SIONG SUPERMARKET PTE LTD,1.33824203,103.92330394,BEDOK RESERVOIR ROAD,739A,1,471739,S02048B000,20171129183653,
COLD STORAGE SINGAPORE (1983) PTE LTD,1.36899801,103.95864765,PASIR RIS DRIVE 4,440,1,510440,S02033P000,20171129183653,
CP MANAGEMENT SERVICES PRIVATE LIMITED,1.32674394,104.00357846,TANAH MERAH COAST ROAD,80,2,498820,SE11799C000,20171129183653,
HAO MART PTE. LTD.,1.35998567,103.95824766,TAMPINES STREET 45,487B,123,521487,NE16875P000,20171129183653,
COLD STORAGE SINGAPORE (1983) PTE LTD,1.30119131,103.90511359,MARINE PARADE ROAD,80,84,449269,E02027N000,20171129183653,
COLD STORAGE SINGAPORE (1983) PTE LTD,1.43061828,103.82876299,YISHUN AVENUE 5,102,125,760102,NW04014P000,20171129183653,
ONE EIGHT SHOP PTE. LTD.,1.33658465,103.73762331,JURONG EAST STREET 13,104,110,600104,C02051P000,20171129183653,
U STARS SUPERMARKET PTE. LTD.,1.31770282,103.76907673,CLEMENTI AVENUE 5,345,78,120345,C02047J000,20171129183653,
THE FOODSPREE PTE LTD,1.31290446,103.89971125,JOO CHIAT ROAD,162,1,427437,SE17760J000,20171129183653,
TASTE (SINGAPORE) PRIVATE LIMITED,1.31052979,103.79610521,HOLLAND AVENUE,118,1/10,278997,CE17174A000,20180222094454,
SHENG SIONG SUPERMARKET PTE LTD,1.3077851,103.85701099,JALAN BERSEH,1,2,209037,E02140N000,20171129183653,
COLD STORAGE SINGAPORE (1983) PTE LTD,1.27779539,103.8193413,TELOK BLANGAH CRESCENT,8,171,90008,W74072X000,20171129183653,
COLD STORAGE SINGAPORE (1983) PTE LTD,1.32257318,103.81424555,BUKIT TIMAH ROAD,501,2,259760,CE06464C000,20171129183653,
SHENG SIONG SUPERMARKET PTE LTD,1.3390448,103.85554107,LORONG 7 TOA PAYOH,4,107,310004,S97079B000,20171129183653,
FISHOP PTE. LTD.,1.28861469,103.80500997,ALEXANDRA ROAD,370,58,159953,CE07B77K000,20180711174048,
L M MEAT PTE. LTD.,1.32042968,103.84389213,SINARAN DRIVE,10,55,307506,CE07T39B000,20180711174048,
COLD STORAGE SINGAPORE (1983) PTE LTD,1.33142686,103.94825706,BEDOK ROAD,348,1,469560,E02047E000,20171129183653,
COLD STORAGE SINGAPORE (1983) PTE LTD,1.3298722,103.90192975,UBI AVENUE 1,306,185,400306,E02030B000,20171129183653,
TEO BOBBY,1.35367103,103.87075683,SERANGOON CENTRAL DRIVE,253,241,550253,SE05117K000,20171129183653,
LOH NYEN YIU,1.30275122,103.86516365,BEACH ROAD,5001,64,199588,W02081N000,20171129183653,
COLD STORAGE SINGAPORE (1983) PTE LTD,1.33211277,103.85737808,KIM KEAT AVENUE,260,1,310260,S02204N000,20171129183653,
MCP FAIRMART PTE LTD,1.33375343,103.73937139,JURONG GATEWAY ROAD,135,317,600135,SW16H72K000,20171129183653,
SHENG SIONG SUPERMARKET PTE LTD,1.30973331,103.7686373,CLEMENTI AVENUE 1,420A,1,121420,SW12M67E000,20171129183653,
SHENG SIONG SUPERMARKET PTE LTD,1.42750548,103.83712529,YISHUN CENTRAL 1,925,211,760925,B02038P000,20171129183653,
COLD STORAGE SINGAPORE (1983) PTE LTD,1.35323164,103.87147286,SERANGOON CENTRAL DRIVE,266,255,550266,E02028L000,20171129183653,
U STARS PTE. LTD.,1.37754384,103.74970004,KEAT HONG LINK,817,14,680817,SW17728C000,20171129183653,
TAN CHUAN BOON,1.36620943,103.8951449,HOUGANG AVENUE 5,309,293,530309,S02031V000,20171129183653,
HAO MART PTE. LTD.,1.31179545,103.93689452,BAYSHORE ROAD,54,7/8,469979,SE06125B000,20180222094454,
ARCHANA PROVISION STORES PTE. LTD,1.31923811,103.73288248,PENJURU WALK,27,6/7,608538,SW15051V000,20180222094454,
SHENG SIONG SUPERMARKET PTE LTD,1.33143369,103.93686541,BEDOK NORTH ROAD,115,319,460115,E03034J000,20171129183653,
SHENG SIONG SUPERMARKET PTE LTD,1.32918106,103.88824844,CIRCUIT ROAD,18B,260,372018,SE16233J000,20171129183653,
COLD STORAGE SINGAPORE (1983) PTE LTD,1.29389359,103.85311991,NORTH BRIDGE ROAD,252,1,179103,W02080P000,20171129183653,
HAO MART PTE. LTD.,1.32471581,103.85775288,WHAMPOA DRIVE,74,332,320074,CE12695A000,20171129183653,
COLD STORAGE SINGAPORE (1983) PTE LTD,1.31733464,103.84346319,THOMSON ROAD,101,52,307591,W02065N000,20171129183653,
COLD STORAGE SINGAPORE (1983) PTE LTD,1.37924529,103.88783203,HOUGANG STREET 51,21,52,538719,S97166P000,20171129183653,
COLD STORAGE SINGAPORE (1983) PTE LTD,1.26206336,103.81862559,MARITIME SQUARE,1,,99253,C03010C000,20171129183654,
KINGSMART PTE. LTD.,1.31621042,103.73252715,PENJURU PLACE,30,6/7,608557,SW07E27X000,20180222094454,
ISETAN (SINGAPORE) LIMITED?,1.30580979,103.83150733,ORCHARD ROAD,350,0,238868,W02078C000,20171129183653,
COLD STORAGE SINGAPORE (1983) PTE LTD,1.24715041,103.83955501,COVE AVENUE,1,,98537,SW12G71E000,20171129183654,
SHENG SIONG SUPERMARKET PTE LTD,1.43150527,103.77351567,WOODLANDS STREET 31,301,217,730301,B02017C000,20171129183653,
EN FROZEN PTE LTD,1.31672515,103.89797742,GEYLANG SERAI,1,198,402001,SE11317V000,20171129183653,
COLD STORAGE SINGAPORE (1983) PTE LTD,1.30242418,103.83467613,ORCHARD ROAD,391A,1,238873,W02071X000,20171129183653,
TEO BOBBY,1.32476041,103.92437024,CHAI CHEE AVENUE,29,62,460029,E02072C000,20171129183653,
NTUC FAIRPRICE CO-OPERATIVE LTD,1.28499884,103.84469709,NEW BRIDGE ROAD,133,1,59413,W90084A000,20190124162920,
SHAHUL HAMEED S/O ABDUSALAM,1.34753519,103.95170278,TAMPINES STREET 22,280,244,520280,NE10213X000,20171129183653,
NTUC FAIRPRICE CO-OPERATIVE LTD,1.29090918,103.80310764,STIRLING ROAD,170,1147,140170,W70029L000,20190124162920,
AP HOUSE PTE. LTD.,1.2783073,103.85079518,MARINA VIEW,12,6/8,18961,CE13Z38L000,20180222094454,
PRIME SUPERMARKET (1996) PTE LTD,1.38079049,103.75195442,TECK WHYE LANE,142,281,680142,J02020B000,20171129183653,
L M MEAT PTE. LTD.,1.30358269,103.76528452,WEST COAST ROAD,154,14,127371,SW13368A000,20171129183653,
ANG MO SUPERMARKET PTE LTD,1.37170343,103.87993899,HOUGANG AVENUE 8,642,197,530642,S93171X000,20171129183653,
COLD STORAGE SINGAPORE (1983) PTE LTD,1.34669905,103.7572767,BUKIT BATOK EAST AVENUE 3,284,251,650284,SW07070J000,20171129183653,
COLD STORAGE SINGAPORE (1983) PTE LTD,1.30176131,103.76936939,CLEMENTI ROAD,101,1,129787,SW12G70J000,20171129183653,
SHENG SIONG SUPERMARKET PTE LTD,1.29531967,103.80975859,DAWSON ROAD,85,1,141085,CE15J25N000,20171129183653,
SHENG SIONG SUPERMARKET PTE LTD,1.32161904,103.85938273,MCNAIR ROAD,108,295,321108,CE04558K000,20171129183653,
LAURELS FOODS SUPPLIERS PTE LTD,1.32044171,103.77897247,PANDAN VALLEY,2,204,597626,C02031B000,20171129183653,
PRIME SUPERMARKET LIMITED,1.34201783,103.69148312,JURONG WEST STREET 91,962,300,640962,J02019K000,20171129183653,
COLD STORAGE SINGAPORE (1983) PTE LTD,1.3056057,103.91537608,MARINE TERRACE,56,259,440056,SE09608P000,20171129183653,
COLD STORAGE SINGAPORE (1983) PTE LTD,1.43611425,103.83760524,YISHUN STREET 22,293,261,760293,B02039N000,20171129183653,
GURU'S MARKETING PTE. LTD.,1.31923811,103.73288248,PENJURU WALK,27,15,608538,SW14A98C000,20171129183653,
SHENG SIONG SUPERMARKET PTE LTD,1.4160188,103.83500077,YISHUN STREET 81,845,184,760845,B02008E000,20171129183653,
COLD STORAGE SINGAPORE (1983) PTE LTD,1.3721017,103.9319999,TAMPINES NORTH DRIVE 2,21,,528765,NE07474A000,20171129183654,
HAO MART PTE. LTD.,1.33177302,103.92423646,BEDOK NORTH STREET 3,537,555,460537,E82118V000,20180711174048,
SHENG SIONG SUPERMARKET PTE LTD,1.45074973,103.79684652,WOODLANDS INDUSTRIAL PARK E7,200,30,757177,NW11702X000,20171129183653,
L M MEAT PTE. LTD.,1.33432515,103.96238931,CHANGI BUSINESS PARK CENTRAL 1,5,23,486038,SE11D22K000,20171129183653,
COLD STORAGE SINGAPORE (1983) PTE LTD,1.44176715,103.82449508,SEMBAWANG ROAD,604,25,758459,NW08385B000,20171129183653,
COLD STORAGE SINGAPORE (1983) PTE LTD,1.35436494,103.96004219,TAMPINES STREET 32,9,30,529286,S02036K000,20171129183653,
AJMAL TRADE MART PTE. LTD.,1.40631205,103.76056172,MANDAI ESTATE,23,21,729937,NW09331A000,20171129183653,
SIVAMANI MINIMART PTE LTD,1.3388823,103.88610926,UPPER PAYA LEBAR ROAD,141,,534846,SE08722A000,20171129183654,
ALTERNATIVE SELECTION PTE. LTD.,1.33661475,103.78696922,BINJAI PARK,29,,589831,NW15264K000,20171129183654,
U STARS SUPERMARKET PTE. LTD.,1.38977025,103.89278716,COMPASSVALE DRIVE,215C,1,543215,NE17098V000,20171129183653,
COLD STORAGE SINGAPORE (1983) PTE LTD,1.32144769,103.95541947,EASTWOOD ROAD,20,7/9,486442,E02026P000,20180222094454,
PHANG NEE ENTERPRISE PTE. LTD.,1.32078791,103.72975134,JALAN PAPAN,2D,4,619415,SW09426V000,20171129183653,
COLD STORAGE SINGAPORE (1983) PTE LTD,1.36645363,103.9645985,PASIR RIS STREET 21,259,27,510259,NE16139A000,20171129183653,
PRIME SUPERMARKET LIMITED,1.35894637,103.75036581,BUKIT BATOK STREET 31,373,248,650373,J02017N000,20180711174048,
COLD STORAGE SINGAPORE (1983) PTE LTD,1.4456229,103.798141,WOODLANDS AVENUE 6,768,34,730768,B02012N000,20171129183653,
HAO MART PTE. LTD.,1.35803524,103.84820849,BISHAN STREET 23,222,K1,570222,CE17A46V000,20171129183654,
SHENG SIONG SUPERMARKET PTE LTD,1.35239358,103.71575951,JURONG WEST STREET 42,544,97/99,640544,J02009N000,20171129183654,
SHENG SIONG SUPERMARKET PTE LTD,1.31923811,103.73288248,PENJURU WALK,27,24,608538,SW14817E000,20171129183653,
SONG FISH DEALER PTE LTD,1.33983015,103.70646089,JURONG WEST CENTRAL 2,1,26,648886,C99107C000,20171129183653,
COLD STORAGE SINGAPORE (1983) PTE LTD,1.41738337,103.83297991,YISHUN AVENUE 2,201,3,769092,CE05039P000,20171129183653,
TUAS SOUTH MINIMART PTE. LTD.,1.27067712,103.6361448,TUAS SOUTH STREET 15,6,,636906,SW16126J000,20171129183654,
GW TRADER PTE. LTD.,1.41833138,103.89644789,SELETAR NORTH LINK,8,3,797455,CE15023A000,20171129183653,
ANG KEN CHUA,1.38062798,103.74152011,CHOA CHU KANG AVENUE 3,410,341,680410,J02008P000,20180711174048,
SHENG SIONG SUPERMARKET PTE LTD,1.31427861,103.77135057,CLEMENTI AVENUE 2,352,91&99,120352,SW07331C000,20171129183654,
SHENG SIONG SUPERMARKET PTE LTD,1.35184498,103.83605365,UPPER THOMSON ROAD,200,1,574424,S02058V000,20171129183653,
CHENNAI TRADING & SUPERMART PTE. LTD.,1.32048426,103.72672284,JALAN PAPAN,1,35,619392,SW16921N000,20171129183653,
NG CHAI SENG,1.27392941,103.82531077,BUKIT PURMEI ROAD,109,155,90109,W02100V000,20180711174048,
VINAYAK TRADERS PTE. LTD.,1.32048426,103.72672284,JALAN PAPAN,1,33,619392,SW16814X000,20171129183653,
COLD STORAGE SINGAPORE (1983) PTE LTD,1.39209415,103.89498004,SENGKANG SQUARE,1,25,545078,NE16363K000,20171129183653,
FOUR SEASONS ORGANIC MARKET PTE. LTD.,1.30119131,103.90511359,MARINE PARADE ROAD,80,83A,449269,SE10553J000,20171129183654,
U STARS SUPERMARKET PTE. LTD.,1.39684979,103.88924676,ANCHORVALE STREET,330,1,540330,CE15B61K000,20171129183653,
MAHOTA FOOD PTE. LTD.,1.30832701,103.86200588,FRENCH ROAD,809,31,200809,CE16445A000,20171129183653,
PRIME SUPERMARKET (1996) PTE LTD,1.37368393,103.87141698,SERANGOON NORTH AVENUE 3,542B,1,552542,CE12H94B000,20171129183653,
SONG FISH DEALER PTE LTD,1.28499884,103.84469709,NEW BRIDGE ROAD,133,26,59413,CE14938E000,20171129183653,
SHENG SIONG SUPERMARKET PTE LTD,1.41081926,103.90037168,SUMANG LINK,312A,4,821312,NE15211C000,20171129183653,
GURU'S MARKETING PTE. LTD.,1.32048426,103.72672284,JALAN PAPAN,1,31,619392,SW16735N000,20171129183653,
PHAN NEE INVESTMENTS (S) PTE LTD,1.44518329,103.83796323,YISHUN AVENUE 7,2C,3,768930,NW11577N000,20171129183653,
THE BUTCHER (SINGAPORE) PTE. LTD.,1.30119131,103.90511359,MARINE PARADE ROAD,80,83B,449269,SE05244V000,20171129183654,
SUN TRG & CON PTE LTD,1.45132505,103.79109518,WOODLANDS INDUSTRIAL PARK E5,280,24,757322,NW17024A000,20171129183653,
SHENG SIONG SUPERMARKET PTE LTD,1.28708279,103.84158012,CHIN SWEE ROAD,52,25,160052,W02332N000,20171129183653,
SARATHI STORES PTE LTD,1.33748492,103.88700417,UPPER PAYA LEBAR ROAD,91,,534821,SE12F88V000,20171129183654,
HAO MART PTE. LTD.,1.37307947,103.82963087,JALAN KURAS,16,,577729,CE12V01C000,20171129183654,
THNG SAIK MONG,1.32212394,103.77026591,CLEMENTI STREET 11,108,K1,120108,NW06239N000,20171129183654,
DE ESPERTO MINIMART PTE. LTD.,1.45122064,103.79785342,WOODLANDS INDUSTRIAL PARK E7,190,,757178,NW14006E000,20171129183654,
MALAR MARKETING PTE. LTD.,1.3133581,103.627437,TUAS SOUTH AVENUE 1,69,2,637589,SW16H70N000,20171129183653,
YS LOGISTICS (S) PTE. LTD.,1.30859346,103.72231684,JALAN TEPONG,15,2,619336,SW11146X000,20171129183653,
BALASUBRAMANIYAN KANNADASAN,1.43594536,103.75400843,KRANJI ROAD,257,,739503,J87134E000,20171129183654,
PRIME SUPERMARKET LIMITED,1.3232896,103.92414964,CHAI CHEE ROAD,25A,459,461025,E02041X000,20171129183653,
COLD STORAGE SINGAPORE (1983) PTE LTD,1.36012371,103.76754239,UPPER BUKIT TIMAH ROAD,464,,678077,J02011C000,20171129183654,
COLD STORAGE SINGAPORE (1983) PTE LTD,1.28355873,103.85850575,BAYFRONT AVENUE,2,46,18972,CE10K82J000,20171129183653,
COLD STORAGE SINGAPORE (1983) PTE LTD,1.38358044,103.77076831,FAJAR ROAD,445,536,670445,B02026B000,20171129183653,
SONG FISH DEALER PTE LTD,1.33320022,103.74317043,JURONG GATEWAY ROAD,50,43,608549,SW17592A000,20171129183653,
BISMILLAH MINIMART PTE. LTD.,1.40754324,103.75809498,MANDAI ESTATE,32,2,729939,NW13J23J000,20171129183653,
PRIME SUPERMARKET LIMITED,1.39652618,103.90885077,PUNGGOL FIELD,108,2,820108,S02127E000,20171129183653,
NPS IMPEX PTE. LTD,1.29895147,103.62751791,TUAS VIEW SQUARE,21,,637640,SW15681P000,20171129183654,
COLD STORAGE SINGAPORE (1983) PTE LTD,1.44275332,103.79054802,WOODLANDS STREET 82,883,498,730883,B02037X000,20171129183653,
COLD STORAGE SINGAPORE (1983) PTE LTD,1.34560771,103.88269585,JALAN LOKAM,2,37,537846,SE16595E000,20171129183653,
SHENG SIONG SUPERMARKET PTE LTD,1.3324023,103.9255006,BEDOK NORTH STREET 3,539A,477,461539,E02032V000,20171129183653,
PRIME SUPERMARKET (1996) PTE LTD,1.3520906,103.8793146,HOUGANG STREET 11,159A,1,531159,NE11529V000,20171129183653,
PHAN NEE TRADING LLP,1.46138854,103.81811128,ADMIRALTY ROAD WEST,49,,757444,NW10192C000,20171129183654,
HAO MART PTE. LTD.,1.31346904,103.87700475,LORONG 11 GEYLANG,32,,388724,CE11B47P000,20171129183654,
I-TEC SUPERMART PTE LTD,1.31328862,103.88515315,GEYLANG ROAD,498/500,,389456,SE11136C000,20171129183654,
YEO HOCK HENG,1.31357605,103.8818778,ALJUNIED ROAD,5,,389797,CE09744N000,20171129183654,
GOWRI'S GLOBAL MARKETING PTE. LTD.,1.32888601,103.67712999,UPPER JURONG ROAD,555,2,638368,SW08907C000,20171129183653,
PRIME SUPERMARKET LIMITED,1.39484816,103.89604227,COMPASSVALE STREET,263,1,540263,S02151E000,20171129183653,
AJMAL TRADE MART PTE. LTD.,1.43069359,103.7592373,KRANJI ROAD,12,,739522,SW12L48X000,20171129183654,
AZ SUPERMART PTE. LTD.,1.33809674,103.90994667,KAKI BUKIT AVENUE 3,21,,415920,NE04109P000,20171129183654,
KAVI TRADERS PTE. LTD.,1.31332235,103.62791699,TUAS SOUTH AVENUE 1,69R,2,639926,SW16B85N000,20171129183653,
COLD STORAGE SINGAPORE (1983) PTE LTD,1.42489932,103.84724979,YISHUN AVENUE 11,418,433,760418,B92077A000,20171129183653,
FORTUNE SUPERMARKET PTE. LTD.,1.45551208,103.81454029,SEMBAWANG DRIVE,463,2,750463,NW14040B000,20171129183653,
PRB TRADING PTE. LTD.,1.31208877,103.87738927,GEYLANG ROAD,230,,389290,CE10085L000,20171129183654,
SHENG SIONG SUPERMARKET PTE LTD,1.34878489,103.70341566,JURONG WEST AVENUE 5,7,,649486,SW07209E000,20171129183654,
SHENG SIONG SUPERMARKET PTE LTD,1.31272055,103.8786415,GEYLANG ROAD,301,,389344,CE12546B000,20171129183654,
ZAC MEAT & POULTRY PTE LTD,1.31574933,103.92585703,FIGARO STREET,1B,,458322,SE14C27C000,20171129183654,
FOODIE MARKET PLACE PTE. LTD.,1.30608637,103.89614964,TANJONG KATONG ROAD,313,,437096,SE15043B000,20171129183654,
SHAFEN SUPERMARKET & TRADING (S) PTE. LTD.,1.33641798,103.75180739,TOH GUAN ROAD EAST,18,2,608596,SW14017K000,20171129183653,
AJMAL SUPER MART PTE. LTD.,1.31396452,103.62576466,TUAS SOUTH AVENUE 1,70,40,637285,SW14718K000,20171129183653,
D-RON INVESTMENTS PTE. LTD.,1.4169078,103.89601877,SELETAR NORTH LINK,2,38,797601,CE15042P000,20171129183653,
COLD STORAGE SINGAPORE (1983) PTE LTD,1.30756237,103.8293522,CLAYMORE DRIVE,1,41,229594,W02079B000,20171129183653,
COLD STORAGE SINGAPORE (1983) PTE LTD,1.37423951,103.83948919,ANG MO KIO AVENUE 4,161,504,560161,B02032E000,20171129183653,
COLD STORAGE SINGAPORE (1983) PTE LTD,1.38199703,103.89703108,COMPASSVALE BOW,266,2,540266,NE06429X000,20171129183653,
HAO MART PTE. LTD.,1.31935027,103.94363236,BEDOK SOUTH AVENUE 3,69,484,460069,SE17500A000,20171129183653,
TAN PAK NANG,1.33312324,103.8788419,UPPER ALJUNIED ROAD,387,,367872,SE06465L000,20171129183654,
GOWRI'S GLOBAL MARKETING PTE. LTD.,1.41072219,103.76839597,MANDAI ROAD,460,,729760,NW16252K000,20171129183654,
SHENG SIONG SUPERMARKET PTE LTD,1.35590219,103.94591219,TAMPINES CENTRAL 1,506,361,520506,NE15002X000,20171129183653,
U STARS SUPERMARKET PTE. LTD.,1.40541354,103.8968239,PUNGGOL WAY,261,2,820261,NE15440C000,20171129183653,
COLD STORAGE SINGAPORE (1983) PTE LTD,1.35011243,103.7245987,JURONG WEST STREET 41,492,,640492,J03056N000,20171129183654,
COLD STORAGE SINGAPORE (1983) PTE LTD,1.45273623,103.81724928,SEMBAWANG DRIVE,406A,2,751406,NW07636K000,20171129183653,
NG LIAN TEE,1.33166478,103.8070338,GREENDALE AVENUE,7,,289504,CE09902A000,20171129183654,
COLD STORAGE SINGAPORE (1983) PTE LTD,1.31617743,103.83781498,DUNEARN ROAD,36A,44,309426,W02064P000,20171129183653,
COLD STORAGE SINGAPORE (1983) PTE LTD,1.37454929,103.93708818,PASIR RIS STREET 71,776,412,510776,NE09314N000,20171129183653,
HAO MART PTE. LTD.,1.37343025,103.77392409,PETIR ROAD,205,595,670205,NW16634L000,20171129183653,
BANGLADESH SUPER MARKET PTE. LTD.,1.45343693,103.83252637,SEMBAWANG ROAD,1024,,758498,B90051N000,20171129183654,
LABIBA ENTERPRISE PTE. LTD.,1.39657416,103.87285158,JALAN KAYU,249,,799473,CE13S05E000,20171129183654,
PRIME SUPERMARKET (1996) PTE LTD,1.42539842,103.83325904,YISHUN STREET 72,761,348,760761,NW12G73N000,20171129183653,
SADIA SUPERMARKET & TRADING (S) PTE. LTD.,1.31069429,103.63019002,TECH PARK CRESCENT,14,2,638118,SW09288C000,20171129183653,
