supermarket_name,supermarket_lat,supermarket_lng,supermarket_license_id,address_block,address_street,postal_code,last_updated
PAN PACIFIC INTERNATIONAL HOLDINGS PTE. LTD.,1.27458822,103.84347074,CE18A78X000,100,TRAS STREET,79027,20180711174048
SHENG SIONG SUPERMARKET PTE LTD,1.4201555,103.84355889,NW18478E000,675,YISHUN AVENUE 4,760675,20181003180619
AJMAL TRADING GROUP PTE. LTD.,1.46152555,103.80943895,NW15489B000,2,WOODLANDS SECTOR 2,737723,20181003180619
THE FISHWIVES PTE. LTD.,1.32257318,103.81424555,W02430L000,501,BUKIT TIMAH ROAD,259760,20171129183654
AJMAL TRADING GROUP PTE. LTD.,1.32210836,103.72748075,SW16B52K000,5,JALAN PAPAN,619396,20181003180619
THE SEAFOOD MARKET PLACE (BY SONG FISH) PTE. LTD.,1.40287845,103.91319575,NE18529J000,681,PUNGGOL DRIVE,820681,20181003180619
LI LI CHENG SUPERMARKET (PUNGGOL) PTE. LTD.,1.40230301,103.90126239,NE12I65N000,273C,PUNGGOL PLACE,823273,20171129183653
SHENG SIONG SUPERMARKET PTE LTD,1.36754925,103.83674064,CE04334P000,233,ANG MO KIO AVENUE 3,560233,20171129183653
COLD STORAGE SINGAPORE (1983) PTE LTD,1.30484344,103.8238528,W02073N000,163,TANGLIN ROAD,247933,20181003180619
SHENG SIONG SUPERMARKET PTE LTD,1.44680413,103.80548758,NW18649C000,785E,WOODLANDS RISE,735785,20181003180619
PHAN NEE TRADING LLP,1.4443413,103.8390302,NW08337X000,2B,YISHUN AVENUE 7,768929,20181003180619
SHENG SIONG SUPERMARKET PTE LTD,1.3077851,103.85701099,CE12096L000,1,JALAN BERSEH,209037,20181003180619
BLUEWATER SEAFOOD PTE. LTD.,1.30344597,103.80938167,CE18D64L000,8D,DEMPSEY ROAD,249672,20181003180619
COLD STORAGE SINGAPORE (1983) PTE LTD,1.30982227,103.9022325,SE11505P000,291,JOO CHIAT ROAD,427543,20180711174048
SHENG SIONG SUPERMARKET PTE LTD,1.35572308,103.73930311,SW18A30L000,440,BUKIT BATOK WEST AVENUE 8,650440,20181003180619
MURUGAN TRADERS PTE LTD,1.3249198,103.70509971,SW18B79P000,9,TRACTOR ROAD,627970,20181003180619
PRIME SUPERMARKET (1996) PTE LTD,1.35370297,103.89068079,S02059X000,106,HOUGANG AVENUE 1,530106,20171129183653
COLD STORAGE SINGAPORE (1983) PTE LTD,1.3232504,103.76726005,NW08141P000,41,SUNSET WAY,597071,20171129183654
ABEDIN TRADING PTE. LTD.,1.31420655,103.88669976,SE15464L000,599,GEYLANG ROAD,389538,20171129183653
WONS BUTCHERY PTE. LTD.,1.30570971,103.82446382,CE18G34E000,1,ST. MARTIN'S DRIVE,257988,20181003180619
THE SEAFOOD MARKET PLACE (BY SONG FISH) PTE. LTD.,1.43991608,103.80070121,NW18310J000,676,WOODLANDS DRIVE 71,730676,20180711174048
COLD STORAGE SINGAPORE (1983) PTE LTD,1.3726457,103.85389071,S02169J000,525,ANG MO KIO AVENUE 10,560525,20180711174048
U STARS PTE. LTD.,1.37860238,103.94197818,NE04092A000,625,ELIAS ROAD,510625,20181003180619
LITTLE FARMS PTE. LTD.,1.3106435,103.79524617,CE18I13C000,3,LORONG LIPUT,277725,20181003180619
YES SUPERMARKET PTE LTD,1.35345316,103.95300992,S02037J000,201B,TAMPINES STREET 21,522201,20171129183653
COLD STORAGE SINGAPORE (1983) PTE LTD,1.32021102,103.84365677,W02074L000,238,THOMSON ROAD,307683,20171129183654
TAN KWEE ENG,1.4300711,103.84239645,B02041C000,327,YISHUN RING ROAD,760327,20171129183653
JSJ CORPORATION PTE. LTD.,1.31845201,103.98586941,SE17345J000,31A,TANAH MERAH COAST ROAD,498720,20181003180619
SHENG SIONG SUPERMARKET PTE LTD,1.31423937,103.87091404,E73010V000,11,UPPER BOON KENG ROAD,380011,20171129183653
COLD STORAGE SINGAPORE (1983) PTE LTD,1.37332122,103.88636554,NE11909C000,683,HOUGANG AVENUE 8,530683,20171129183653
SHENG SIONG SUPERMARKET PTE LTD,1.40262197,103.9165196,NE17700J000,660A,EDGEDALE PLAINS,821660,20180711174048
LOTTE MART PTE. LTD.,1.34082661,103.77421326,SW06806E000,17,LORONG KILAT,598139,20181003180619
PRIME SUPERMARKET LIMITED,1.33429241,103.87874621,SE04040C000,1,UPPER ALJUNIED LANE,360001,20171129183653
SONG FISH DEALER PTE LTD,1.37834971,103.76274118,NW17069X000,17,PETIR ROAD,678278,20180711174048
HAO MART PTE. LTD.,1.3999042,103.91935276,NE18667L000,658,PUNGGOL EAST,820658,20181003180619
COLD STORAGE SINGAPORE (1983) PTE LTD,1.33295873,103.91494183,S02210X000,631,BEDOK RESERVOIR ROAD,470631,20171129183653
SHENG SIONG SUPERMARKET PTE LTD,1.3701886,103.84341324,B02015J000,122,ANG MO KIO AVENUE 3,560122,20171129183653
G8 MART PTE. LTD.,1.36538422,103.85296696,CE13401C000,421,ANG MO KIO AVENUE 10,560421,20171129183653
B & S MINI MART PTE. LTD.,1.31245105,103.87962232,CE14Q85A000,310,GEYLANG ROAD,389349,20181003180619
COLD STORAGE SINGAPORE (1983) PTE LTD,1.30222178,103.87615267,SE07216L000,5,STADIUM WALK,397693,20171129183653
"CHEE MIN KUAN, SIMON",1.30373373,103.89649824,SE14965K000,342,TANJONG KATONG ROAD,437112,20181003180619
SUZYAMEER FROZEN PTE. LTD.,1.35226231,103.9535865,NE08357A000,201D,TAMPINES STREET 21,524201,20171129183653
KAI SOON SUPERMARKET PTE. LTD.,1.42213865,103.83288267,W03223N000,780,YISHUN RING ROAD,760780,20171129183653
FOODIE MARKET PLACE PTE. LTD.,1.28345077,103.83537131,CE10I13B000,225,OUTRAM ROAD,169038,20171129183654
HAO MART PTE. LTD.,1.32821169,103.85981258,CE17M26A000,17,JALAN TENTERAM,321017,20180222094454
COLD STORAGE SINGAPORE (1983) PTE LTD,1.31469214,103.89448053,SE14875L000,11,TANJONG KATONG ROAD,437157,20171129183653
COLD STORAGE SINGAPORE (1983) PTE LTD,1.29929407,103.78740406,SW17E56V000,1,FUSIONOPOLIS WAY,138632,20180222094454
SHENG SIONG SUPERMARKET PTE LTD,1.30246409,103.76375097,SW05051J000,720,CLEMENTI WEST STREET 2,120720,20171129183653
PRIME SUPERMARKET LIMITED,1.30836527,103.86091279,E02042P000,803,KING GEORGE'S AVENUE,200803,20171129183653
SHENG SIONG SUPERMARKET PTE LTD,1.39922857,103.88965392,CE17Q33A000,338,ANCHORVALE CRESCENT,540338,20180222094454
HAO MART PTE. LTD.,1.27784877,103.83081147,CE17M36X000,146,JALAN BUKIT MERAH,160146,20180222094454
T S J INDUSTRIAL (S) PTE. LTD.,1.33683097,103.75434143,SW14484J000,48,TOH GUAN ROAD EAST,608586,20171129183653
COLD STORAGE SINGAPORE (1983) PTE LTD,1.30119131,103.90511359,E02196C000,80,MARINE PARADE ROAD,449269,20171129183654
PAN PACIFIC INTERNATIONAL HOLDINGS PTE. LTD.,1.30083892,103.83943474,CE17L45A000,181,ORCHARD ROAD,238896,20180222094454
COLD STORAGE SINGAPORE (1983) PTE LTD,1.30974242,103.86410165,CE14G73B000,12,KALLANG AVENUE,339511,20171129183653
MCP FAIRMART PTE LTD,1.35925941,103.75069464,J92067N000,BLK 371,BUKIT BATOK STREET 31,650371,20180222094454
COLD STORAGE SINGAPORE (1983) PTE LTD,1.33149147,103.80680926,CE09685B000,20,GREENWOOD AVENUE,289215,20171129183654
COLD STORAGE SINGAPORE (1983) PTE LTD,1.30358269,103.76528452,SW08807K000,154,WEST COAST ROAD,127371,20171129183654
SHENG SIONG SUPERMARKET PTE LTD,1.43351253,103.77974686,NW17734V000,4,WOODLANDS STREET 12,738623,20180222094454
WAN SIEW YOONG,1.28180062,103.84290817,W02099P000,4,SAGO LANE,50004,20180222094454
SHENG SIONG SUPERMARKET PTE LTD,1.44886402,103.83239286,NW18021V000,105,CANBERRA STREET,750105,20180222094454
COLD STORAGE SINGAPORE (1983) PTE LTD,1.42969848,103.8357765,NW08314K000,930,YISHUN AVENUE 2,769098,20180222094454
COLD STORAGE SINGAPORE (1983) PTE LTD,1.35949664,103.88507993,S02024X000,205,HOUGANG STREET 21,530205,20171129183653
BHANDARI INTERNATIONAL PTE. LTD.,1.45132505,103.79109518,NW17277E000,280,WOODLANDS INDUSTRIAL PARK E5 (PART OF),757322,20180222094454
COLD STORAGE SINGAPORE (1983) PTE LTD,1.31756197,103.78584062,C02025V000,293,HOLLAND ROAD,278628,20171129183654
COLD STORAGE SINGAPORE (1983) PTE LTD,1.30684883,103.78821454,SW12J97L000,1,VISTA EXCHANGE GREEN,138617,20171129183654
SHENG SIONG SUPERMARKET PTE LTD,1.32546808,103.72522155,C02050X000,3,YUAN CHING ROAD,618642,20180711174048
7SEVEN PTE. LTD.,1.45605973,103.78643692,NW14561E000,51,NORTH COAST AVENUE,756992,20180222094454
MUSTAFA HOLDINGS PTE LTD,1.30975275,103.85570159,W03142N000,147,SYED ALWI ROAD,207706,20171129183654
VIVA CORP SERVICES PTE. LTD.,1.33733862,103.90373509,NE14190K000,23,KAKI BUKIT ROAD 3,415812,20180711174048
ROSWELL ENTERPRISE PTE LTD,1.33183241,103.80649242,B03078N000,34,GREENWOOD AVENUE,289236,20171129183654
SUPERNATURE PTE LTD,1.3061958,103.82850902,CE13539N000,583,ORCHARD ROAD,238884,20171129183654
PRIME SUPERMARKET LIMITED,1.34873284,103.93401024,S02040X000,823,TAMPINES STREET 81,520823,20171129183653
YEO KENG GUAN,1.31661898,103.77894726,C02052N000,5,RIDGEWOOD CLOSE,276696,20171129183654
COLD STORAGE SINGAPORE (1983) PTE LTD,1.31867576,103.89255061,SE14A83A000,60,PAYA LEBAR ROAD,409051,20180222094454
COLD STORAGE SINGAPORE (1983) PTE LTD,1.4357608,103.83672388,NW04015N000,291,YISHUN STREET 22,760291,20180711174048
U STARS PTE. LTD.,1.44062992,103.80619806,NW17990N000,691,WOODLANDS DRIVE 73,730691,20180222094454
MD SYDUR RAHMAN,1.29501369,103.62672926,SW08047V000,13,TUAS SOUTH STREET 5,637555,20180711174048
MEAT THE BUTCHER PTE. LTD.,1.32437351,103.80935794,C00033N000,615,BUKIT TIMAH ROAD,269716,20171129183654
COLD STORAGE SINGAPORE (1983) PTE LTD,1.28861469,103.80500997,CE07569B000,370,ALEXANDRA ROAD,159953,20180222094454
COLD STORAGE SINGAPORE (1983) PTE LTD,1.34922419,103.93491252,S02038E000,829,TAMPINES STREET 81,520829,20171129183654
SHENG SIONG SUPERMARKET PTE LTD,1.39158704,103.87987249,CE17Q32B000,417,FERNVALE LINK,790417,20180222094454
COLD STORAGE SINGAPORE (1983) PTE LTD,1.43600784,103.78568873,NW11384E000,1,WOODLANDS SQUARE,738099,20171129183654
SWISS BUTCHERY (2013) PRIVATE LIMITED,1.3317611,103.80658689,CE07705A000,30,GREENWOOD AVENUE,289230,20171129183654
HUBER'S PTE. LTD.,1.30679241,103.81018582,CE15F60K000,22,DEMPSEY ROAD,249679,20171129183654
CHD @ SOON LEE PTE. LTD.,1.3321229,103.69907027,SW08A55C000,51,SOON LEE ROAD,628088,20180711174048
NTUC FAIRPRICE CO-OPERATIVE LTD,1.32397688,103.91068966,S91085V000,110,LENGKONG TIGA,410110,20190124162920
NTUC FAIRPRICE CO-OPERATIVE LTD,1.33296549,103.84705035,S02103A000,500,LORONG 6 TOA PAYOH,310500,20190124162920
SADIA MINIMART PTE LTD,1.40852997,103.75940617,NW15751L000,11,MANDAI ESTATE,729908,20171129183653
COLD STORAGE SINGAPORE (1983) PTE LTD,1.33177582,103.94620124,SE14377P000,430,UPPER CHANGI ROAD,487048,20171129183653
RAW MARKET PTE. LTD.,1.37558831,103.96083973,NE15760A000,11,PASIR RIS LINK,518180,20171129183653
COLD STORAGE SINGAPORE (1983) PTE LTD,1.34962234,103.8498817,CE09512V000,512,BISHAN STREET 13,570512,20171129183653
NTUC FAIRPRICE CO-OPERATIVE LTD,1.35466902,103.83091979,S02056B000,301,UPPER THOMSON ROAD,574408,20190124162920
COLD STORAGE SINGAPORE (1983) PTE LTD,1.30074756,103.84504763,W02088A000,68,ORCHARD ROAD,238839,20171129183654
NTUC FAIRPRICE CO-OPERATIVE LTD,1.38493202,103.90155803,S02055C000,118,RIVERVALE DRIVE,540118,20190124162920
COLD STORAGE SINGAPORE (1983) PTE LTD,1.24775862,103.8419211,SW12N25V000,31,OCEAN WAY,98375,20171129183654
NTUC FAIRPRICE CO-OPERATIVE LTD,1.39219777,103.90447161,S02054E000,11,RIVERVALE CRESCENT,545082,20190124162920
NTUC FAIRPRICE CO-OPERATIVE LTD,1.33166183,103.85048301,S02051L000,192,LORONG 4 TOA PAYOH,310192,20190124162920
COLD STORAGE SINGAPORE (1983) PTE LTD,1.43084007,103.79341633,B02035A000,548,WOODLANDS DRIVE 44,730548,20171129183654
COLD STORAGE SINGAPORE (1983) PTE LTD,1.33899462,103.79313381,W02140C000,200,TURF CLUB ROAD,287994,20180711174048
NAWAS GLOBAL PTE. LTD.,1.27164226,103.63351228,SW16224E000,3,TUAS SOUTH STREET 12,636947,20171129183653
IROHA INTERNATIONAL PTE. LTD.,1.30074756,103.84504763,CE16I13V000,68,ORCHARD ROAD,238839,20171129183653
LIN POH LING,1.34064293,103.8543345,SE06616X000,212,LORONG 8 TOA PAYOH,310212,20171129183654
COLD STORAGE SINGAPORE (1983) PTE LTD,1.35067551,103.87186162,SE10579K000,23,SERANGOON CENTRAL,556083,20171129183654
SEOUL BUTCHERY PTE. LTD.,1.34207496,103.7746328,SW18715E000,13,YUK TONG AVENUE,596318,20180711174048
HAO MART PTE. LTD.,1.43359514,103.83968538,B85098V000,239,YISHUN RING ROAD,760239,20180711174048
V SURESH KUMAR,1.45982817,103.82007345,NW12H40C000,51,ADMIRALTY ROAD WEST - LODGE 1,757443,20180711174048
NTUC FAIRPRICE CO-OPERATIVE LTD,1.36032332,103.95312597,S02052K000,475,TAMPINES STREET 44,520475,20190124162920
SADIA SUPERMARKET & TRADING (S) PTE. LTD.,1.27030978,103.63416392,SW16901A000,12,TUAS SOUTH STREET 13,636937,20171129183654
SHENG SIONG SUPERMARKET PTE LTD,1.32213636,103.7382928,C02080E000,61,TEBAN GARDENS ROAD,600061,20171129183653
COLD STORAGE SINGAPORE (1983) PTE LTD,1.30372322,103.83524031,W02070V000,290,ORCHARD ROAD,238859,20171129183654
LITTLE FARMS PTE. LTD.,1.29301786,103.82694081,CE05380X000,491,RIVER VALLEY ROAD,248371,20171129183653
NTUC FAIRPRICE CO-OPERATIVE LTD,1.37976754,103.93620757,S98084K000,734,PASIR RIS STREET 72,510734,20190124162920
COLD STORAGE SINGAPORE (1983) PTE LTD,1.30014248,103.85578698,W02075K000,230,VICTORIA STREET,188024,20171129183653
COLD STORAGE SINGAPORE (1983) PTE LTD,1.29225959,103.84256103,W02096A000,81,CLEMENCEAU AVENUE,239917,20171129183653
THE BUTCHER (SINGAPORE) PTE. LTD.,1.31192196,103.79684405,B03074A000,44,JALAN MERAH SAGA,278116,20171129183653
COLD STORAGE SINGAPORE (1983) PTE LTD,1.38529556,103.76617053,B02011P000,524A,JELAPANG ROAD,671524,20171129183654
COLD STORAGE SINGAPORE (1983) PTE LTD,1.31943618,103.82734585,CE10B87J000,383,BUKIT TIMAH ROAD,259727,20171129183654
NTUC FAIRPRICE CO-OPERATIVE LTD,1.35437074,103.98516965,SE07559P000,65,AIRPORT BOULEVARD,819663,20190124162920
NTUC FAIRPRICE CO-OPERATIVE LTD,1.30782737,103.88476386,SE04130B000,41,JALAN TIGA,390041,20190124162920
NTUC FAIRPRICE CO-OPERATIVE LTD,1.34837105,103.94812893,S02053J000,107,TAMPINES STREET 11,521107,20190124162920
NTUC FAIRPRICE CO-OPERATIVE LTD,1.31553965,103.8987649,SE04012L000,2,JOO CHIAT ROAD,420002,20190124162920
COLD STORAGE SINGAPORE (1983) PTE LTD,1.29380236,103.83175791,W02068J000,1,KIM SENG PROMENADE,237994,20171129183654
NTUC FAIRPRICE CO-OPERATIVE LTD,1.35722282,103.84378526,S94081C000,279,BISHAN STREET 24,570279,20190124162920
PHAN NEE INVESTMENTS (S) PTE LTD,1.37761084,103.71840375,SW16E98J000,500,OLD CHOA CHU KANG ROAD,698924,20171129183653
HAO MART PTE. LTD.,1.3131751,103.88364667,SE18184V000,448/450,GEYLANG ROAD,389407,20180711174048
POPULAR SUPERMARKET PTE LTD,1.27030978,103.63416392,SW16942C000,12,TUAS SOUTH STREET 13,636937,20171129183654
COLD STORAGE SINGAPORE (1983) PTE LTD,1.27737236,103.8528448,CE17J36N000,5,STRAITS VIEW,18935,20171129183654
MEIDI-YA SINGAPORE CO (PTE) LTD,1.29151479,103.8445863,W02094C000,177,RIVER VALLEY ROAD,179030,20171129183653
NTUC FAIRPRICE CO-OPERATIVE LTD,1.33177055,103.8792945,SE16122V000,401,MACPHERSON ROAD,368125,20190124162920
NTUC FAIRPRICE CO-OPERATIVE LTD,1.30476357,103.7816972,SW07481A000,28,DOVER CRESCENT,130028,20190124162920
NTUC FAIRPRICE CO-OPERATIVE LTD,1.33253591,103.86703684,SE14441L000,6,POTONG PASIR AVENUE 2,358361,20190124162920
NTUC FAIRPRICE CO-OPERATIVE LTD,1.36650698,103.74684712,SW14633X000,2,BUKIT BATOK WEST AVENUE 7,659003,20190124162920
NTUC FAIRPRICE CO-OPERATIVE LTD,1.38003058,103.75311842,SW08821N000,140,TECK WHYE LANE,680140,20190124162920
NTUC FAIRPRICE CO-OPERATIVE LTD,1.3211898,103.90326628,SE09706N000,5,EUNOS CRESCENT,400005,20190124162920
NTUC FAIRPRICE CO-OPERATIVE LTD,1.32052027,103.74265152,SW15968N000,37,TEBAN GARDENS ROAD,600037,20190124162920
NTUC FAIRPRICE CO-OPERATIVE LTD,1.39712886,103.74732972,SW09285K000,61,CHOA CHU KANG DRIVE,689715,20190124162920
NTUC FAIRPRICE CO-OPERATIVE LTD,1.31188596,103.75908094,SW12O05A000,502,WEST COAST DRIVE,120502,20190124162920
NTUC FAIRPRICE CO-OPERATIVE LTD,1.31485323,103.7642482,SW10A16E000,3155,COMMONWEALTH AVENUE WEST,129588,20190124162920
NTUC FAIRPRICE CO-OPERATIVE LTD,1.31886941,103.89473136,SE17481P000,10,EUNOS ROAD 8,408600,20190124162920
NTUC FAIRPRICE CO-OPERATIVE LTD,1.32460665,103.67809637,SW14951X000,1,JOO KOON CIRCLE,629117,20190124162920
NTUC FAIRPRICE CO-OPERATIVE LTD,1.3973019,103.74655807,SW09032C000,21,CHOA CHU KANG NORTH 6,689578,20190124162920
NTUC FAIRPRICE CO-OPERATIVE LTD,1.31414997,103.88854491,SE11577E000,612-620,GEYLANG ROAD,389551,20190124162920
NTUC FAIRPRICE CO-OPERATIVE LTD,1.32424555,103.94156871,SE13S71X000,57,NEW UPPER CHANGI ROAD,461057,20190124162920
LAMIAH ENTERPRISE PTE. LTD.,1.31146785,103.63034009,SW09752V000,5,TECH PARK CRESCENT,638127,20190124162920
NTUC FAIRPRICE CO-OPERATIVE LTD,1.33653868,103.88876271,SE17082P000,18,TAI SENG STREET,539775,20190124162920
NTUC FAIRPRICE CO-OPERATIVE LTD,1.32477208,103.92926766,SE13135L000,311,NEW UPPER CHANGI ROAD,467360,20190124162920
NTUC FAIRPRICE CO-OPERATIVE LTD,1.31427861,103.77135057,SW12F58E000,352,CLEMENTI AVENUE 2,120352,20190124162920
NTUC FAIRPRICE CO-OPERATIVE LTD,1.30385031,103.90285038,SE13U91V000,30,EAST COAST ROAD,428751,20190124162920
NTUC FAIRPRICE CO-OPERATIVE LTD,1.34770148,103.75704459,SW13Q24X000,280,BUKIT BATOK EAST AVENUE 3,650280,20190124162920
NTUC FAIRPRICE CO-OPERATIVE LTD,1.29277433,103.78408402,SW13245V000,1,LOWER KENT RIDGE ROAD,119082,20190124162920
SHINVA AGRO FOODS PTE. LTD.,1.30091147,103.62778889,SW14B28C000,115,TUAS VIEW WALK 1,637734,20190124162920
NTUC FAIRPRICE CO-OPERATIVE LTD,1.30384328,103.87275071,SE14467N000,1,STADIUM PLACE,397628,20190124162920
NTUC FAIRPRICE CO-OPERATIVE LTD,1.28112228,103.81003132,SW04158X000,108,DEPOT ROAD,100108,20190124162920
COLD STORAGE SINGAPORE (1983) PTE LTD,1.26389582,103.82158925,SW06590A000,1,HARBOURFRONT WALK,98585,20190124162920
JMD RETAIL PTE. LTD.,1.30416447,103.89632702,SE18544L000,330,TANJONG KATONG ROAD,437106,20190124162920
NTUC FAIRPRICE CO-OPERATIVE LTD,1.33491977,103.96365391,SE12G19X000,8,CHANGI BUSINESS PARK AVENUE 1,486018,20190124162920
NTUC FAIRPRICE CO-OPERATIVE LTD,1.34259104,103.7391995,SW16D83E000,249,JURONG EAST STREET 24,600249,20190124162920
NTUC FAIRPRICE CO-OPERATIVE LTD,1.33326818,103.74017674,SW12C98J000,2,JURONG EAST CENTRAL 1,609731,20190124162920
NTUC FAIRPRICE CO-OPERATIVE LTD,1.33320022,103.74317043,SW13T12J000,50,JURONG GATEWAY ROAD,608549,20190124162920
NTUC FAIRPRICE CO-OPERATIVE LTD,1.33931504,103.705351,SW08A59X000,63,JURONG WEST CENTRAL 3,648331,20190124162920
NTUC FAIRPRICE CO-OPERATIVE LTD,1.35519094,103.98875098,SE13U39E000,60,AIRPORT BOULEVARD,819643,20190124162920
NTUC FAIRPRICE CO-OPERATIVE LTD,1.33233468,103.93805129,SE11071C000,89,BEDOK NORTH STREET 4,460089,20190124162920
NTUC FAIRPRICE CO-OPERATIVE LTD,1.27367658,103.80112696,SW11A26P000,460,ALEXANDRA ROAD,119963,20190124162920
NTUC FAIRPRICE CO-OPERATIVE LTD,1.33432515,103.96238931,SE11947P000,5,CHANGI BUSINESS PARK CENTRAL 1,486038,20190124162920
NTUC FAIRPRICE CO-OPERATIVE LTD,1.39207388,103.74309958,SW15796X000,533,CHOA CHU KANG STREET 51,680533,20190124162920
NTUC FAIRPRICE CO-OPERATIVE LTD,1.27338253,103.80893482,SW11452C000,78A,TELOK BLANGAH STREET 32,101078,20190124162920
SHINVA AGRO FOODS PTE. LTD.,1.3110024,103.63157233,SW14824J000,11,TECH PARK CRESCENT,638121,20190124162920
PHAN NEE INVESTMENTS (S) PTE LTD,1.3719328,103.72085742,SW16815P000,500,OLD CHOA CHU KANG ROAD,698928,20190124162920
NTUC FAIRPRICE CO-OPERATIVE LTD,1.35067551,103.87186162,SE10564B000,23,SERANGOON CENTRAL,556083,20190124162920
NTUC FAIRPRICE CO-OPERATIVE LTD,1.34270619,103.9530245,SE14775X000,3,SIMEI STREET 6,528833,20190124162920
NTUC FAIRPRICE CO-OPERATIVE LTD,1.34833335,103.72430733,SW12H20A000,498,JURONG WEST STREET 41,640498,20190124162920
NTUC FAIRPRICE CO-OPERATIVE LTD,1.29301786,103.82694081,CE06044N000,491,RIVER VALLEY ROAD,248371,20190124162920
NTUC FAIRPRICE CO-OPERATIVE LTD,1.43755656,103.7951364,B02024E000,888,WOODLANDS DRIVE 50,730888,20190124162920
NTUC FAIRPRICE CO-OPERATIVE LTD,1.28646346,103.82693508,W02072P000,302,TIONG BAHRU ROAD,168732,20190124162920
NTUC FAIRPRICE CO-OPERATIVE LTD,1.33504202,103.72026802,C02041V000,399,YUNG SHENG ROAD,610399,20190124162920
NTUC FAIRPRICE CO-OPERATIVE LTD,1.32042968,103.84389213,CE06L48L000,10,SINARAN DRIVE,307506,20190124162920
NTUC FAIRPRICE CO-OPERATIVE LTD,1.3665583,103.84162409,B98014C000,215,ANG MO KIO AVENUE 1,560215,20190124162920
NTUC FAIRPRICE CO-OPERATIVE LTD,1.28645354,103.8082424,CE05487V000,1,JALAN BUKIT MERAH,150001,20190124162920
NTUC FAIRPRICE CO-OPERATIVE LTD,1.31139349,103.85648712,CE09H10X000,180,KITCHENER ROAD,208539,20190124162920
NTUC FAIRPRICE CO-OPERATIVE LTD,1.41698316,103.83521819,B02099L000,849,YISHUN RING ROAD,760849,20190124162920
NTUC FAIRPRICE CO-OPERATIVE LTD,1.41103598,103.8440399,B99041L000,1,ORCHID CLUB ROAD,769162,20190124162920
NTUC FAIRPRICE CO-OPERATIVE LTD,1.28977814,103.82679376,W02086C000,50,HAVELOCK ROAD,160050,20190124162920
NTUC FAIRPRICE CO-OPERATIVE LTD,1.31248299,103.76547676,C02035P000,451,CLEMENTI AVENUE 3,120451,20190124162920
NTUC FAIRPRICE CO-OPERATIVE LTD,1.38509601,103.76021844,B03099C000,628,SENJA ROAD,670628,20190124162920
NTUC FAIRPRICE CO-OPERATIVE LTD,1.44822653,103.81946211,B02021L000,30,SEMBAWANG DRIVE,757713,20190124162920
COLD STORAGE SINGAPORE (1983) PTE LTD,1.34813379,103.68541847,SW18A40J000,35,STUDENTS WALK,639548,20190124162920
NTUC FAIRPRICE CO-OPERATIVE LTD,1.29727532,103.83853393,W02239E000,131,KILLINEY ROAD,239571,20190124162920
NTUC FAIRPRICE CO-OPERATIVE LTD,1.42452848,103.84659555,B02025C000,414,YISHUN RING ROAD,760414,20190124162920
NTUC FAIRPRICE CO-OPERATIVE LTD,1.27624053,103.84300612,W02092J000,5,TANJONG PAGAR PLAZA,81005,20190124162920
NTUC FAIRPRICE CO-OPERATIVE LTD,1.33983015,103.70646089,C02038K000,1,JURONG WEST CENTRAL 2,648886,20190124162920
NTUC FAIRPRICE CO-OPERATIVE LTD,1.38054244,103.76399395,B02020N000,1,JELEBU ROAD,677743,20190124162920
NTUC FAIRPRICE CO-OPERATIVE LTD,1.34716236,103.74280788,C02053L000,166,BUKIT BATOK WEST AVENUE 8,650166,20190124162920
NTUC FAIRPRICE CO-OPERATIVE LTD,1.2831195,103.81764287,W02083K000,166,BUKIT MERAH CENTRAL,150166,20190124162920
SHENG SIONG SUPERMARKET PTE LTD,1.35303825,103.74394845,SW18F69X000,451,BUKIT BATOK WEST AVENUE 6,650451,20190124162920
NTUC FAIRPRICE CO-OPERATIVE LTD,1.3487108,103.74933453,C02104B000,10,BUKIT BATOK CENTRAL,659958,20190124162920
SHENG SIONG SUPERMARKET PTE LTD,1.375635,103.87199642,CE04561V000,19,SERANGOON NORTH AVENUE 5,554913,20190124162920
NTUC FAIRPRICE CO-OPERATIVE LTD,1.3126545,103.8725418,CE07D83B000,5,UPPER BOON KENG ROAD,380005,20190124162920
NTUC FAIRPRICE CO-OPERATIVE LTD,1.32379608,103.85567063,CE08H32N000,80,LORONG LIMAU,320080,20190124162920
HONESTBEE PTE. LTD.,1.27604519,103.79718734,SW18G66X000,34,BOON LEAT TERRACE,119866,20190124162920
NTUC FAIRPRICE CO-OPERATIVE LTD,1.32099295,103.87039,CE05295K000,71,KALLANG BAHRU,330071,20190124162920
THE QUALITYMART DEPOT PTE. LTD.,1.28220136,103.80302376,SW18581V000,180,DEPOT ROAD,109684,20190124162920
NTUC FAIRPRICE CO-OPERATIVE LTD,1.42919468,103.78113689,B02034B000,30,WOODLANDS AVENUE 1,739065,20190124162920
NTUC FAIRPRICE CO-OPERATIVE LTD,1.32512653,103.85105564,W02084J000,360,BALESTIER ROAD,329783,20190124162920
NTUC FAIRPRICE CO-OPERATIVE LTD,1.3455121,103.73121915,C85274C000,BLK 345,JURONG EAST STREET 31,600345,20190124162920
NTUC FAIRPRICE CO-OPERATIVE LTD,1.31536303,103.84943451,CE07320C000,43,CAMBRIDGE ROAD,210043,20190124162920
NTUC FAIRPRICE CO-OPERATIVE LTD,1.36924891,103.84839924,CE06M36N000,53,ANG MO KIO AVENUE 3,569933,20190124162920
NTUC FAIRPRICE CO-OPERATIVE LTD,1.42952522,103.83499514,B02093B000,301,YISHUN AVENUE 2,769093,20190124162920
NTUC FAIRPRICE CO-OPERATIVE LTD,1.33865677,103.77856047,C02036N000,1,JALAN ANAK BUKIT,588996,20190124162920
NTUC FAIRPRICE CO-OPERATIVE LTD,1.2927034,103.81095896,CE04086K000,57,DAWSON ROAD,142057,20190124162920
NTUC FAIRPRICE CO-OPERATIVE LTD,1.28480735,103.82929801,CE08015J000,18 /20,KIM TIAN ROAD,169252,20190124162920
NTUC FAIRPRICE CO-OPERATIVE LTD,1.32383513,103.80999958,C02034X000,587,BUKIT TIMAH ROAD,269707,20190124162920
NTUC FAIRPRICE CO-OPERATIVE LTD,1.33375343,103.73937139,C02037L000,135,JURONG EAST STREET 13,600135,20190124162920
NTUC FAIRPRICE CO-OPERATIVE LTD,1.43262603,103.7740512,B02022K000,71,WOODLANDS AVENUE 3,739044,20190124162920
NTUC FAIRPRICE CO-OPERATIVE LTD,1.33205938,103.72245289,C02040A000,63/66,YUNG KUANG ROAD,610063,20190124162920
NTUC FAIRPRICE CO-OPERATIVE LTD,1.3697994,103.8730358,E02039E000,152B,SERANGOON NORTH AVENUE 1,552152,20190124162920
COLD STORAGE SINGAPORE (1983) PTE LTD,1.27461794,103.84431956,CE14G71E000,16,ENGGOR STREET,79717,20190124162920
NTUC FAIRPRICE CO-OPERATIVE LTD,1.30141956,103.90711266,E02096K000,6,MARINE PARADE CENTRAL,449411,20190124162920
NTUC FAIRPRICE CO-OPERATIVE LTD,1.37743006,103.90371287,NE15467C000,476,UPPER SERANGOON VIEW,530476,20190124162920
NTUC FAIRPRICE CO-OPERATIVE LTD,1.39139306,103.87606766,CE14L50J000,33,SENGKANG WEST AVENUE,797653,20190124162920
NTUC FAIRPRICE CO-OPERATIVE LTD,1.37089456,103.85639651,CE16K18V000,574,ANG MO KIO AVENUE 10,560574,20190124162920
NTUC FAIRPRICE CO-OPERATIVE LTD,1.3714092,103.84708288,CE11N90C000,712,ANG MO KIO AVENUE 6,560712,20190124162920
NTUC FAIRPRICE CO-OPERATIVE LTD,1.33889072,103.84899332,CE17L02A000,95,LORONG 4 TOA PAYOH,310095,20190124162920
NTUC FAIRPRICE CO-OPERATIVE LTD,1.38621835,103.8929955,CE15695V000,279,SENGKANG EAST AVENUE,540279,20190124162920
NTUC FAIRPRICE CO-OPERATIVE LTD,1.40461003,103.90866561,NE12B79A000,612,PUNGGOL DRIVE,820612,20190124162920
YOUR GROCER PRIVATE LIMITED,1.28807688,103.82708128,CE18R71X000,34,JALAN BUKIT HO SWEE,160034,20190124162920
PAN PACIFIC INTERNATIONAL HOLDINGS PTE. LTD.,1.31139349,103.85648712,CE18T88K000,180,KITCHENER ROAD,208539,20190124162920
NTUC FAIRPRICE CO-OPERATIVE LTD,1.37714073,103.95359909,NE08058P000,1,PASIR RIS CLOSE,519599,20190124162920
NTUC FAIRPRICE CO-OPERATIVE LTD,1.37177996,103.89416538,NE09263B000,100,HOUGANG AVENUE 10,538767,20190124162920
NTUC FAIRPRICE CO-OPERATIVE LTD,1.31230753,103.92523454,E83157K000,934,EAST COAST ROAD,459125,20190124162920
NTUC FAIRPRICE CO-OPERATIVE LTD,1.32855657,103.88534991,E95315V000,77,CIRCUIT ROAD,370077,20190124162920
U STARS SUPERMARKET PTE. LTD.,1.35126411,103.92936384,NE17390X000,878C,TAMPINES AVENUE 8,523878,20190124162920
COLD STORAGE SINGAPORE (1983) PTE LTD,1.35431556,103.94501946,NE09027A000,10,TAMPINES CENTRAL 1,529536,20190124162920
NTUC FAIRPRICE CO-OPERATIVE LTD,1.39418409,103.91297644,NE04107V000,168,PUNGGOL FIELD,820168,20190124162920
NTUC FAIRPRICE CO-OPERATIVE LTD,1.36516071,103.86504186,NE10310X000,1,MAJU AVENUE,556679,20190124162920
NTUC FAIRPRICE CO-OPERATIVE LTD,1.34528144,103.94534429,NE04047K000,138,TAMPINES STREET 11,521138,20190124162920
NTUC FAIRPRICE CO-OPERATIVE LTD,1.31909344,103.86390533,CE17K55B000,30,BENDEMEER ROAD,330030,20190124162920
NTUC FAIRPRICE CO-OPERATIVE LTD,1.27458822,103.84347074,CE12H50C000,100,TRAS STREET,79027,20190124162920
NTUC FAIRPRICE CO-OPERATIVE LTD,1.38233698,103.89360784,NE08150C000,BLK 277C,COMPASSVALE LINK,543277,20190124162920
NTUC FAIRPRICE CO-OPERATIVE LTD,1.35542176,103.93431523,NE04114A000,866A,TAMPINES STREET 83,521866,20190124162920
NTUC FAIRPRICE CO-OPERATIVE LTD,1.30836165,103.90798882,E98161V000,239/255,EAST COAST ROAD,428932,20190124162920
COLD STORAGE SINGAPORE (1983) PTE LTD,1.29487905,103.8576755,CE13Z03L000,3,TEMASEK BOULEVARD,38983,20190124162920
NTUC FAIRPRICE CO-OPERATIVE LTD,1.30585583,103.83298436,CE11M39P000,6,SCOTTS ROAD,228209,20190124162920
NTUC FAIRPRICE CO-OPERATIVE LTD,1.3259407,103.93164003,E02035N000,212,BEDOK NORTH STREET 1,460212,20190124162920
NTUC FAIRPRICE CO-OPERATIVE LTD,1.27707708,103.83142586,CE11F41C000,150,SILAT AVENUE,160150,20190124162920
NTUC FAIRPRICE CO-OPERATIVE LTD,1.39213828,103.87249056,CE13R25C000,447A,JALAN KAYU,791447,20190124162920
NTUC FAIRPRICE CO-OPERATIVE LTD,1.30880609,103.86131196,CE13Z98K000,808,FRENCH ROAD,200808,20190124162920
NTUC FAIRPRICE CO-OPERATIVE LTD,1.32176645,103.88667279,E02034P000,114,ALJUNIED AVENUE 2,380114,20190124162920
NTUC FAIRPRICE CO-OPERATIVE LTD,1.35349616,103.93968359,NE16640E000,51,TAMPINES AVENUE 4,528523,20190124162920
"JEWISH WELFARE BOARD, SINGAPORE, THE",1.29827329,103.85059951,CE11H82X000,24,WATERLOO STREET,187950,20190124162920
COLD STORAGE SINGAPORE (1983) PTE LTD,1.28022769,103.8533493,CE18T11J000,8A,MARINA BOULEVARD,18984,20190124162920
NTUC FAIRPRICE CO-OPERATIVE LTD,1.36321586,103.83544536,CE17E43B000,410A,SIN MING AVENUE,571410,20190124162920
NTUC FAIRPRICE CO-OPERATIVE LTD,1.3552429,103.93162364,NE17563L000,872C,TAMPINES STREET 86,523872,20190124162920
NTUC FAIRPRICE CO-OPERATIVE LTD,1.28668027,103.81376634,CE15G35E000,20,LENGKOK BAHRU,159053,20190124162920
NTUC FAIRPRICE CO-OPERATIVE LTD,1.32708486,103.84647647,CE13O90C000,20,AH HOOD ROAD,329984,20190124162920
NTUC FAIRPRICE CO-OPERATIVE LTD,1.38506836,103.74495039,J96145K000,21,CHOA CHU KANG AVENUE 4,689812,20190124162920
NTUC FAIRPRICE CO-OPERATIVE LTD,1.34634819,103.71242932,J02013A000,221,BOON LAY PLACE,640221,20190124162920
SF (313) PTE. LTD.,1.29487905,103.8576755,CE17P14L000,3,TEMASEK BOULEVARD,38983,20190124162920
SHENG SIONG SUPERMARKET PTE LTD,1.36700054,103.96461778,NE17023N000,258,PASIR RIS STREET 21,510258,20171129183653
HAO MART PTE. LTD.,1.33545353,103.86338798,E85090E000,120,POTONG PASIR AVENUE 1,350120,20171129183653
NTUC FAIRPRICE CO-OPERATIVE LTD,1.37834971,103.76274118,NW17097K000,17,PETIR ROAD,678278,20190124162920
NTUC FAIRPRICE CO-OPERATIVE LTD,1.30849289,103.78459811,NW18091N000,29A,GHIM MOH LINK,271029,20190124162920
NTUC FAIRPRICE CO-OPERATIVE LTD,1.44956648,103.81864114,NW07277P000,355,SEMBAWANG WAY,750355,20190124162920
U STARS PTE. LTD.,1.41517634,103.83983039,NW17212X000,507,YISHUN AVENUE 4,760507,20171129183653
COLD STORAGE SINGAPORE (1983) PTE LTD,1.38739537,103.86913598,CE11P32L000,1,SELETAR ROAD,807011,20171129183653
NTUC FAIRPRICE CO-OPERATIVE LTD,1.30918211,103.79254749,NW08477X000,36,HOLLAND DRIVE,270036,20190124162920
CUTECH GREEN VENTURES PTE. LTD.,1.45334362,103.7956824,NW17699N000,10,WOODLANDS INDUSTRIAL PARK E1,757733,20190124162920
NTUC FAIRPRICE CO-OPERATIVE LTD,1.33740471,103.92177474,S02049A000,745,BEDOK RESERVOIR ROAD,470745,20190124162920
LOCH GROCER PTE. LTD.,1.34995541,103.71770481,SW09133X000,503,JURONG WEST AVENUE 1,640503,20171129183653
NTUC FAIRPRICE CO-OPERATIVE LTD,1.3736183,103.88574886,S02027L000,682,HOUGANG AVENUE 4,530682,20190124162920
SHENG SIONG SUPERMARKET PTE LTD,1.32463573,103.93106884,SE04069A000,209,NEW UPPER CHANGI ROAD,460209,20171129183653
CULINA PTE LTD,1.30417512,103.80952614,CE07411A000,8,DEMPSEY ROAD,247696,20171129183653
OH BENG GUAN,1.36393821,103.75189601,SW06322N000,395A,BUKIT BATOK WEST AVENUE 5,651395,20171129183653
NTUC FAIRPRICE CO-OPERATIVE LTD,1.42799996,103.83614204,NW17872B000,1,NORTHPOINT DRIVE,768019,20190124162920
COLD STORAGE SINGAPORE (1983) PTE LTD,1.33362232,103.85097786,S02057A000,181,LORONG 4 TOA PAYOH,310181,20171129183653
NTUC FAIRPRICE CO-OPERATIVE LTD,1.34888844,103.84969199,S02021B000,510,BISHAN STREET 13,570510,20190124162920
L M MEAT PTE. LTD.,1.32365173,103.92210296,SE16607K000,750,CHAI CHEE ROAD,469000,20171129183653
NTUC FAIRPRICE CO-OPERATIVE LTD,1.43507789,103.78661962,NW04127A000,900,SOUTH WOODLANDS DRIVE,730900,20190124162920
COLD STORAGE SINGAPORE (1983) PTE LTD,1.28692006,103.8186736,W72014K000,86,REDHILL CLOSE,150086,20171129183653
SHENG SIONG SUPERMARKET PTE LTD,1.38060512,103.76004159,NW11767E000,1,WOODLANDS ROAD,677899,20190124162920
PRIME SUPERMARKET LIMITED,1.43998365,103.80129311,B02027A000,678,WOODLANDS AVENUE 6,730678,20171129183653
CHUA & NG PTE. LTD.,1.33205095,103.91414508,NE08405X000,632,BEDOK RESERVOIR ROAD,470632,20171129183653
NTUC FAIRPRICE CO-OPERATIVE LTD,1.41799926,103.84123647,NW18192E000,598,YISHUN RING ROAD,768698,20190124162920
NTUC FAIRPRICE CO-OPERATIVE LTD,1.35267232,103.94438798,S02039C000,4,TAMPINES CENTRAL 5,529510,20190124162920
COLD STORAGE SINGAPORE (1983) PTE LTD,1.3646254,103.84767704,CE05096V000,316B,ANG MO KIO STREET 31,563316,20171129183653
SHENG SIONG SUPERMARKET PTE LTD,1.30203803,103.79802175,CE07783P000,88,TANGLIN HALT ROAD,141088,20171129183653
NTUC FAIRPRICE CO-OPERATIVE LTD,1.37244981,103.9497157,S02034N000,1,PASIR RIS CENTRAL STREET 3,518457,20190124162920
NTUC FAIRPRICE CO-OPERATIVE LTD,1.40287845,103.91319575,NE18169P000,681,PUNGGOL DRIVE,820681,20190124162920
SONG FISH DEALER PTE LTD,1.32365173,103.92210296,SE16670X000,750,CHAI CHEE ROAD,469000,20171129183653
NTUC FAIRPRICE CO-OPERATIVE LTD,1.43991608,103.80070121,NW17908L000,676,WOODLANDS DRIVE 71,730676,20190124162920
NTUC FAIRPRICE CO-OPERATIVE LTD,1.43106395,103.79045409,NW13K05E000,570B,WOODLANDS AVENUE 1,732570,20190124162920
NTUC FAIRPRICE CO-OPERATIVE LTD,1.35757558,103.88403846,S02028K000,202,HOUGANG STREET 21,530202,20190124162920
TANESEI TRADING PTE. LTD.,1.30684883,103.78821454,SW12J94X000,1,VISTA EXCHANGE GREEN,138617,20171129183653
NTUC FAIRPRICE CO-OPERATIVE LTD,1.35023943,103.84847763,S02023V000,9,BISHAN PLACE,579837,20190124162920
SHENG SIONG SUPERMARKET PTE LTD,1.43109807,103.79850763,NW18778K000,573,WOODLANDS DRIVE 16,730573,20190124162920
NTUC FAIRPRICE CO-OPERATIVE LTD,1.37566728,103.87945026,S02029J000,1,HOUGANG STREET 91,538692,20190124162920
NTUC FAIRPRICE CO-OPERATIVE LTD,1.37231186,103.89366162,S02026N000,90,HOUGANG AVENUE 10,538766,20190124162920
IROHA INTERNATIONAL PTE. LTD.,1.28499884,103.84469709,CE17F56J000,133,NEW BRIDGE ROAD,59413,20171129183653
COLD STORAGE SINGAPORE (1983) PTE LTD,1.30523472,103.90501493,SE11930L000,112,EAST COAST ROAD,428802,20171129183653
NTUC FAIRPRICE CO-OPERATIVE LTD,1.45384519,103.81954335,NW06546V000,511,CANBERRA ROAD,750511,20190124162920
NG TOH TET,1.35151847,103.71949649,J02016P000,442,JURONG WEST AVENUE 1,640442,20171129183653
KADER HASNA MARICAN,1.33314578,103.69524811,J03027B000,17,KIAN TECK LANE,627851,20171129183653
COLD STORAGE SINGAPORE (1983) PTE LTD,1.44053815,103.80097759,NW08020K000,70,WOODLANDS AVENUE 7,738344,20171129183653
MM SUNDRY SHOP PTE.LTD.,1.45464655,103.80447674,NW07726J000,27,WOODLANDS SECTOR 1,738252,20171129183653
FORTUNE SUPERMARKET PTE. LTD.,1.44834154,103.80105715,NW15220L000,780,WOODLANDS CRESCENT,730780,20171129183653
COLD STORAGE SINGAPORE (1983) PTE LTD,1.31654468,103.89428939,E02048C000,845,GEYLANG ROAD,400845,20171129183653
ISETAN (SINGAPORE) LIMITED?,1.33402529,103.74258602,SW13W88P000,3,GATEWAY DRIVE,608532,20171129183653
COLD STORAGE SINGAPORE (1983) PTE LTD,1.3308174,103.79569236,C02024A000,1,FIFTH AVENUE,268802,20171129183653
THE ALASKA GUYS PTE. LTD.,1.31212248,103.91118599,SE12D97J000,201,TELOK KURAU ROAD,423910,20171129183653
COLD STORAGE SINGAPORE (1983) PTE LTD,1.3626745,103.76417292,SW14542A000,4,HILLVIEW RISE,667979,20171129183653
"TANG KER AN, TIMOTHY",1.32062506,103.93473423,SE17401C000,18,BEDOK SOUTH ROAD,460018,20171129183653
COLD STORAGE SINGAPORE (1983) PTE LTD,1.35018916,103.74902198,C02046K000,1,BUKIT BATOK CENTRAL LINK,658713,20171129183653
COLD STORAGE SINGAPORE (1983) PTE LTD,1.34159108,103.69702008,SW05008N000,638,JURONG WEST STREET 61,640638,20171129183653
COLD STORAGE SINGAPORE (1983) PTE LTD,1.37805614,103.7389318,J02010E000,475,CHOA CHU KANG AVENUE 3,680475,20171129183653
TANESEI RETAILING PTE. LTD.,1.35236113,103.94378482,NE18406E000,2,TAMPINES CENTRAL 5,529509,20180711174048
COLD STORAGE SINGAPORE (1983) PTE LTD,1.45000861,103.81411091,NW09437C000,468B,ADMIRALTY DRIVE,752468,20171129183653
SONG FISH DEALER PTE LTD,1.42969848,103.8357765,NW17310P000,930,YISHUN AVENUE 2,769098,20171129183653
SHENG SIONG SUPERMARKET PTE LTD,1.38824022,103.76957539,NW15186C000,547,SEGAR ROAD,670547,20171129183653
SHENG SIONG SUPERMARKET PTE LTD,1.38400582,103.77102961,NW17421C000,446,FAJAR ROAD,670446,20171129183653
SHENG SIONG SUPERMARKET PTE LTD,1.39779874,103.88169881,CE16913J000,473,FERNVALE STREET,790473,20171129183653
PRIME SUPERMARKET LIMITED,1.34872643,103.69829201,J94081B000,763,JURONG WEST STREET 75,640763,20171129183653
COLD STORAGE SINGAPORE (1983) PTE LTD,1.37904776,103.77293749,B02060V000,256,BANGKIT ROAD,670256,20171129183653
COLD STORAGE SINGAPORE (1983) PTE LTD,1.31025542,103.79535044,W02066L000,211,HOLLAND AVENUE,278967,20171129183653
U STARS SUPERMARKET PTE. LTD.,1.40322712,103.89538703,NE16747J000,218,SUMANG WALK,820218,20171129183653
MAHOTA FOOD PTE. LTD.,1.35236113,103.94378482,S02041P000,2,TAMPINES CENTRAL 5,529509,20180711174048
SHENG SIONG SUPERMARKET PTE LTD,1.37789203,103.85641198,CE12J32X000,2,ANG MO KIO DRIVE,567720,20180711174048
TOH GUAN MINI MART PTE LTD,1.33832658,103.75353612,SW06002X000,19,TOH GUAN ROAD EAST,608568,20171129183653
SHENG SIONG SUPERMARKET PTE LTD,1.40371939,103.90613801,NE09359K000,301,PUNGGOL CENTRAL,820301,20171129183653
SONG FISH DEALER PTE LTD,1.35236113,103.94378482,NE18339P000,2,TAMPINES CENTRAL 5,529509,20180711174048
SHENG SIONG SUPERMARKET PTE LTD,1.30811887,103.78604939,SW12M64L000,25,GHIM MOH LINK,270025,20180711174048
COLD STORAGE SINGAPORE (1983) PTE LTD,1.28263438,103.82559576,CE11C49E000,26,JALAN MEMBINA,161026,20171129183653
COLD STORAGE SINGAPORE (1983) PTE LTD,1.33667573,103.78370915,NW15295X000,896,DUNEARN ROAD,589472,20171129183653
SHENG SIONG SUPERMARKET PTE LTD,1.3473718,103.74369812,C02033V000,154A,BUKIT BATOK WEST AVENUE 8,651154,20171129183653
U STARS PTE. LTD.,1.37405797,103.74616008,SW16D52V000,810,CHOA CHU KANG AVENUE 7,680810,20171129183653
ISYMI PTE LTD,1.35530903,103.88785719,NE18066E000,183,JALAN PELIKAT,537643,20180711174048
AL MARCHE PTE LTD,1.28076944,103.85265857,CE09874X000,2,MARINA BOULEVARD,18987,20171129183653
COLD STORAGE SINGAPORE (1983) PTE LTD,1.40053114,103.91053693,NE13M11K000,622D,PUNGGOL CENTRAL,824622,20171129183653
TANESEI RETAILING PTE. LTD.,1.30523472,103.90501493,SE11A69V000,112,EAST COAST ROAD,428802,20171129183653
HAO MART PTE. LTD.,1.45026202,103.82253472,NW16763X000,505,CANBERRA LINK,750505,20171129183653
COLD STORAGE SINGAPORE (1983) PTE LTD,1.34239284,103.77625054,C02048E000,144,UPPER BUKIT TIMAH ROAD,588177,20171129183653
THE SEAFOOD MARKET PLACE (BY SONG FISH) PTE. LTD.,1.31469214,103.89448053,SE18169X000,11,TANJONG KATONG ROAD,437157,20180711174048
LITTLE FARMS PTE. LTD.,1.27672493,103.8451554,CE16M43E000,7,WALLICH STREET,78884,20180711174048
ARCHANA SUPERMARKET PTE. LTD.,1.32048426,103.72672284,SW16856V000,1,JALAN PAPAN,619392,20171129183653
ANG MO SUPERMARKET PTE LTD,1.39946117,103.9160545,NE10113B000,639,PUNGGOL DRIVE,820639,20171129183653
L M MEAT PTE. LTD.,1.32042968,103.84389213,CE07T39B000,10,SINARAN DRIVE,307506,20180711174048
TASTE (SINGAPORE) PRIVATE LIMITED,1.31052979,103.79610521,CE17174A000,118,HOLLAND AVENUE,278997,20180222094454
ONE EIGHT SHOP PTE. LTD.,1.33658465,103.73762331,C02051P000,104,JURONG EAST STREET 13,600104,20171129183653
HAO MART PTE. LTD.,1.30706068,103.92376973,SE06112L000,15,SIGLAP ROAD,448912,20171129183653
COLD STORAGE SINGAPORE (1983) PTE LTD,1.30766862,103.8281644,CE15577J000,442,ORCHARD ROAD,238879,20180222094454
PRIME SUPERMARKET LIMITED,1.34857537,103.74270864,SW04097K000,159,BUKIT BATOK STREET 11,650159,20171129183653
COLD STORAGE SINGAPORE (1983) PTE LTD,1.27779539,103.8193413,W74072X000,8,TELOK BLANGAH CRESCENT,90008,20171129183653
SHENG SIONG SUPERMARKET PTE LTD,1.3077851,103.85701099,E02140N000,1,JALAN BERSEH,209037,20171129183653
COLD STORAGE SINGAPORE (1983) PTE LTD,1.36899801,103.95864765,S02033P000,440,PASIR RIS DRIVE 4,510440,20171129183653
COLD STORAGE SINGAPORE (1983) PTE LTD,1.30119131,103.90511359,E02027N000,80,MARINE PARADE ROAD,449269,20171129183653
SHENG SIONG SUPERMARKET PTE LTD,1.36968625,103.94792243,NE15276N000,527D,PASIR RIS STREET 51,514527,20171129183653
COLD STORAGE SINGAPORE (1983) PTE LTD,1.32257318,103.81424555,CE06464C000,501,BUKIT TIMAH ROAD,259760,20171129183653
PRIME SUPERMARKET (1996) PTE LTD,1.34676466,103.67881814,SW15D03B000,50,NANYANG AVENUE,639798,20180222094454
KEK HONG HENG,1.31800981,103.73194891,SW11512N000,23,PENJURU WALK,608537,20171129183653
COLD STORAGE SINGAPORE (1983) PTE LTD,1.3127533,103.92365787,SE13S89V000,2,FIRST STREET,458278,20180222094454
HAO MART PTE. LTD.,1.35998567,103.95824766,NE16875P000,487B,TAMPINES STREET 45,521487,20171129183653
COLD STORAGE SINGAPORE (1983) PTE LTD,1.31008119,103.7885329,C79031J000,21,GHIM MOH ROAD,270021,20171129183653
HONG HENG SENG,1.28119738,103.84343733,W02076J000,5,BANDA STREET,50005,20180711174048
MCP FAIRMART PTE LTD,1.33233468,103.93805129,SE04109X000,89,BEDOK NORTH STREET 4,460089,20171129183653
THE FOODSPREE PTE LTD,1.31290446,103.89971125,SE17760J000,162,JOO CHIAT ROAD,427437,20171129183653
LIM KING CHEW,1.36271446,103.89398051,S02025P000,6,HOUGANG AVENUE 3,530006,20171129183653
SHENG SIONG SUPERMARKET PTE LTD,1.3390448,103.85554107,S97079B000,4,LORONG 7 TOA PAYOH,310004,20171129183653
SHENG SIONG SUPERMARKET PTE LTD,1.33824203,103.92330394,S02048B000,739A,BEDOK RESERVOIR ROAD,471739,20171129183653
VINAYAK TRADERS PTE. LTD.,1.31923811,103.73288248,SW14A33P000,27,PENJURU WALK,608538,20180222094454
U STARS SUPERMARKET PTE. LTD.,1.31770282,103.76907673,C02047J000,345,CLEMENTI AVENUE 5,120345,20171129183653
SHENG SIONG SUPERMARKET PTE LTD,1.37829768,103.75407141,SW11423N000,18,TECK WHYE LANE,680018,20171129183653
COLD STORAGE SINGAPORE (1983) PTE LTD,1.38085035,103.8793091,S02185J000,982,BUANGKOK CRESCENT,530982,20171129183653
MOHAMAD DAMAR HULAN BIN OSMAN,1.31714974,103.90396519,SE12H46E000,212,CHANGI ROAD,419735,20180222094454
COLD STORAGE SINGAPORE (1983) PTE LTD,1.33306648,103.93109139,E02033X000,509,BEDOK NORTH STREET 3,460509,20171129183653
SHENG SIONG SUPERMARKET PTE LTD,1.43303198,103.84160083,NW16388B000,18,YISHUN AVENUE 9,768897,20180222094454
COLD STORAGE SINGAPORE (1983) PTE LTD,1.40566048,103.91199128,NE15611B000,671,EDGEFIELD PLAINS,820671,20171129183653
COLD STORAGE SINGAPORE (1983) PTE LTD,1.35831705,103.74957987,J02021A000,376,BUKIT BATOK STREET 31,650376,20171129183653
SWISS BUTCHERY PTE LTD,1.30561167,103.82296295,CE08808B000,56,TANGLIN ROAD,247964,20171129183653
COLD STORAGE SINGAPORE (1983) PTE LTD,1.3350243,103.74663825,C02026X000,2,JURONG EAST STREET 21,609601,20180711174048
COLD STORAGE SINGAPORE (1983) PTE LTD,1.32000041,103.88736307,E02045K000,118,ALJUNIED AVENUE 2,380118,20171129183653
PRIME SUPERMARKET (1996) PTE LTD,1.32062506,103.93473423,E75097C000,18,BEDOK SOUTH ROAD,460018,20171129183653
FISHOP PTE. LTD.,1.28861469,103.80500997,CE07B77K000,370,ALEXANDRA ROAD,159953,20180711174048
CAVEMEN PTE. LTD.,1.32696541,103.84367424,CE17A77E000,1,JALAN DUSUN,329363,20180222094454
PRIME SUPERMARKET (1996) PTE LTD,1.37743963,103.74438323,J02018L000,253,CHOA CHU KANG AVENUE 1,680253,20180222094454
COLD STORAGE SINGAPORE (1983) PTE LTD,1.30197805,103.8397589,W89166E000,176,ORCHARD ROAD,238843,20180222094454
COLD STORAGE SINGAPORE (1983) PTE LTD,1.33142686,103.94825706,E02047E000,348,BEDOK ROAD,469560,20171129183653
COLD STORAGE SINGAPORE (1983) PTE LTD,1.43061828,103.82876299,NW04014P000,102,YISHUN AVENUE 5,760102,20171129183653
CP MANAGEMENT SERVICES PRIVATE LIMITED,1.32674394,104.00357846,SE11799C000,80,TANAH MERAH COAST ROAD,498820,20171129183653
HAO MART PTE. LTD.,1.31179545,103.93689452,SE06125B000,54,BAYSHORE ROAD,469979,20180222094454
SHENG SIONG SUPERMARKET PTE LTD,1.29531967,103.80975859,CE15J25N000,85,DAWSON ROAD,141085,20171129183653
NTUC FAIRPRICE CO-OPERATIVE LTD,1.29090918,103.80310764,W70029L000,170,STIRLING ROAD,140170,20190124162920
ARCHANA PROVISION STORES PTE. LTD,1.31923811,103.73288248,SW15051V000,27,PENJURU WALK,608538,20180222094454
ISETAN (SINGAPORE) LIMITED?,1.30580979,103.83150733,W02078C000,350,ORCHARD ROAD,238868,20171129183653
SHENG SIONG SUPERMARKET PTE LTD,1.32161904,103.85938273,CE04558K000,108,MCNAIR ROAD,321108,20171129183653
LOH NYEN YIU,1.30275122,103.86516365,W02081N000,5001,BEACH ROAD,199588,20171129183653
COLD STORAGE SINGAPORE (1983) PTE LTD,1.30176131,103.76936939,SW12G70J000,101,CLEMENTI ROAD,129787,20171129183653
TEO BOBBY,1.32476041,103.92437024,E02072C000,29,CHAI CHEE AVENUE,460029,20171129183653
TAN CHUAN BOON,1.36620943,103.8951449,S02031V000,309,HOUGANG AVENUE 5,530309,20171129183653
COLD STORAGE SINGAPORE (1983) PTE LTD,1.24715041,103.83955501,SW12G71E000,1,COVE AVENUE,98537,20171129183654
COLD STORAGE SINGAPORE (1983) PTE LTD,1.33211277,103.85737808,S02204N000,260,KIM KEAT AVENUE,310260,20171129183653
SHENG SIONG SUPERMARKET PTE LTD,1.4160188,103.83500077,B02008E000,845,YISHUN STREET 81,760845,20171129183653
COLD STORAGE SINGAPORE (1983) PTE LTD,1.34669905,103.7572767,SW07070J000,284,BUKIT BATOK EAST AVENUE 3,650284,20171129183653
LAURELS FOODS SUPPLIERS PTE LTD,1.32044171,103.77897247,C02031B000,2,PANDAN VALLEY,597626,20171129183653
PRIME SUPERMARKET LIMITED,1.34201783,103.69148312,J02019K000,962,JURONG WEST STREET 91,640962,20171129183653
COLD STORAGE SINGAPORE (1983) PTE LTD,1.29389359,103.85311991,W02080P000,252,NORTH BRIDGE ROAD,179103,20171129183653
COLD STORAGE SINGAPORE (1983) PTE LTD,1.43611425,103.83760524,B02039N000,293,YISHUN STREET 22,760293,20171129183653
MCP FAIRMART PTE LTD,1.33375343,103.73937139,SW16H72K000,135,JURONG GATEWAY ROAD,600135,20171129183653
SHAHUL HAMEED S/O ABDUSALAM,1.34753519,103.95170278,NE10213X000,280,TAMPINES STREET 22,520280,20171129183653
NTUC FAIRPRICE CO-OPERATIVE LTD,1.28499884,103.84469709,W90084A000,133,NEW BRIDGE ROAD,59413,20190124162920
HAO MART PTE. LTD.,1.32471581,103.85775288,CE12695A000,74,WHAMPOA DRIVE,320074,20171129183653
ANG MO SUPERMARKET PTE LTD,1.37170343,103.87993899,S93171X000,642,HOUGANG AVENUE 8,530642,20171129183653
EN FROZEN PTE LTD,1.31672515,103.89797742,SE11317V000,1,GEYLANG SERAI,402001,20171129183653
COLD STORAGE SINGAPORE (1983) PTE LTD,1.35323164,103.87147286,E02028L000,266,SERANGOON CENTRAL DRIVE,550266,20171129183653
COLD STORAGE SINGAPORE (1983) PTE LTD,1.31733464,103.84346319,W02065N000,101,THOMSON ROAD,307591,20171129183653
SHENG SIONG SUPERMARKET PTE LTD,1.32918106,103.88824844,SE16233J000,18B,CIRCUIT ROAD,372018,20171129183653
PRIME SUPERMARKET (1996) PTE LTD,1.38079049,103.75195442,J02020B000,142,TECK WHYE LANE,680142,20171129183653
COLD STORAGE SINGAPORE (1983) PTE LTD,1.26206336,103.81862559,C03010C000,1,MARITIME SQUARE,99253,20171129183654
COLD STORAGE SINGAPORE (1983) PTE LTD,1.3056057,103.91537608,SE09608P000,56,MARINE TERRACE,440056,20171129183653
SHENG SIONG SUPERMARKET PTE LTD,1.42750548,103.83712529,B02038P000,925,YISHUN CENTRAL 1,760925,20171129183653
COLD STORAGE SINGAPORE (1983) PTE LTD,1.37924529,103.88783203,S97166P000,21,HOUGANG STREET 51,538719,20171129183653
SHENG SIONG SUPERMARKET PTE LTD,1.43150527,103.77351567,B02017C000,301,WOODLANDS STREET 31,730301,20171129183653
GURU'S MARKETING PTE. LTD.,1.31923811,103.73288248,SW14A98C000,27,PENJURU WALK,608538,20171129183653
SHENG SIONG SUPERMARKET PTE LTD,1.30973331,103.7686373,SW12M67E000,420A,CLEMENTI AVENUE 1,121420,20171129183653
COLD STORAGE SINGAPORE (1983) PTE LTD,1.3298722,103.90192975,E02030B000,306,UBI AVENUE 1,400306,20171129183653
U STARS PTE. LTD.,1.37754384,103.74970004,SW17728C000,817,KEAT HONG LINK,680817,20171129183653
L M MEAT PTE. LTD.,1.30358269,103.76528452,SW13368A000,154,WEST COAST ROAD,127371,20171129183653
COLD STORAGE SINGAPORE (1983) PTE LTD,1.30242418,103.83467613,W02071X000,391A,ORCHARD ROAD,238873,20171129183653
SHENG SIONG SUPERMARKET PTE LTD,1.33143369,103.93686541,E03034J000,115,BEDOK NORTH ROAD,460115,20171129183653
AP HOUSE PTE. LTD.,1.2783073,103.85079518,CE13Z38L000,12,MARINA VIEW,18961,20180222094454
TEO BOBBY,1.35367103,103.87075683,SE05117K000,253,SERANGOON CENTRAL DRIVE,550253,20171129183653
KINGSMART PTE. LTD.,1.31621042,103.73252715,SW07E27X000,30,PENJURU PLACE,608557,20180222094454
COLD STORAGE SINGAPORE (1983) PTE LTD,1.3721017,103.9319999,NE07474A000,21,TAMPINES NORTH DRIVE 2,528765,20171129183654
PHAN NEE INVESTMENTS (S) PTE LTD,1.44518329,103.83796323,NW11577N000,2C,YISHUN AVENUE 7,768930,20171129183653
COLD STORAGE SINGAPORE (1983) PTE LTD,1.4456229,103.798141,B02012N000,768,WOODLANDS AVENUE 6,730768,20171129183653
SARATHI STORES PTE LTD,1.33748492,103.88700417,SE12F88V000,91,UPPER PAYA LEBAR ROAD,534821,20171129183654
COLD STORAGE SINGAPORE (1983) PTE LTD,1.41738337,103.83297991,CE05039P000,201,YISHUN AVENUE 2,769092,20171129183653
U STARS SUPERMARKET PTE. LTD.,1.39684979,103.88924676,CE15B61K000,330,ANCHORVALE STREET,540330,20171129183653
HAO MART PTE. LTD.,1.35803524,103.84820849,CE17A46V000,222,BISHAN STREET 23,570222,20171129183654
SHENG SIONG SUPERMARKET PTE LTD,1.31923811,103.73288248,SW14817E000,27,PENJURU WALK,608538,20171129183653
COLD STORAGE SINGAPORE (1983) PTE LTD,1.32144769,103.95541947,E02026P000,20,EASTWOOD ROAD,486442,20180222094454
SHENG SIONG SUPERMARKET PTE LTD,1.35239358,103.71575951,J02009N000,544,JURONG WEST STREET 42,640544,20171129183654
TUAS SOUTH MINIMART PTE. LTD.,1.27067712,103.6361448,SW16126J000,6,TUAS SOUTH STREET 15,636906,20171129183654
ANG KEN CHUA,1.38062798,103.74152011,J02008P000,410,CHOA CHU KANG AVENUE 3,680410,20180711174048
THNG SAIK MONG,1.32212394,103.77026591,NW06239N000,108,CLEMENTI STREET 11,120108,20171129183654
SHENG SIONG SUPERMARKET PTE LTD,1.35184498,103.83605365,S02058V000,200,UPPER THOMSON ROAD,574424,20171129183653
SHENG SIONG SUPERMARKET PTE LTD,1.28708279,103.84158012,W02332N000,52,CHIN SWEE ROAD,160052,20171129183653
SHENG SIONG SUPERMARKET PTE LTD,1.41081926,103.90037168,NE15211C000,312A,SUMANG LINK,821312,20171129183653
HAO MART PTE. LTD.,1.33177302,103.92423646,E82118V000,537,BEDOK NORTH STREET 3,460537,20180711174048
SONG FISH DEALER PTE LTD,1.33983015,103.70646089,C99107C000,1,JURONG WEST CENTRAL 2,648886,20171129183653
SHENG SIONG SUPERMARKET PTE LTD,1.31427861,103.77135057,SW07331C000,352,CLEMENTI AVENUE 2,120352,20171129183654
COLD STORAGE SINGAPORE (1983) PTE LTD,1.35436494,103.96004219,S02036K000,9,TAMPINES STREET 32,529286,20171129183653
L M MEAT PTE. LTD.,1.33432515,103.96238931,SE11D22K000,5,CHANGI BUSINESS PARK CENTRAL 1,486038,20171129183653
NG CHAI SENG,1.27392941,103.82531077,W02100V000,109,BUKIT PURMEI ROAD,90109,20180711174048
SONG FISH DEALER PTE LTD,1.28499884,103.84469709,CE14938E000,133,NEW BRIDGE ROAD,59413,20171129183653
FOUR SEASONS ORGANIC MARKET PTE. LTD.,1.30119131,103.90511359,SE10553J000,80,MARINE PARADE ROAD,449269,20171129183654
SUN TRG & CON PTE LTD,1.45132505,103.79109518,NW17024A000,280,WOODLANDS INDUSTRIAL PARK E5,757322,20171129183653
MAHOTA FOOD PTE. LTD.,1.30832701,103.86200588,CE16445A000,809,FRENCH ROAD,200809,20171129183653
GURU'S MARKETING PTE. LTD.,1.32048426,103.72672284,SW16735N000,1,JALAN PAPAN,619392,20171129183653
THE BUTCHER (SINGAPORE) PTE. LTD.,1.30119131,103.90511359,SE05244V000,80,MARINE PARADE ROAD,449269,20171129183654
ALTERNATIVE SELECTION PTE. LTD.,1.33661475,103.78696922,NW15264K000,29,BINJAI PARK,589831,20171129183654
SIVAMANI MINIMART PTE LTD,1.3388823,103.88610926,SE08722A000,141,UPPER PAYA LEBAR ROAD,534846,20171129183654
HAO MART PTE. LTD.,1.37307947,103.82963087,CE12V01C000,16,JALAN KURAS,577729,20171129183654
COLD STORAGE SINGAPORE (1983) PTE LTD,1.39209415,103.89498004,NE16363K000,1,SENGKANG SQUARE,545078,20171129183653
PRIME SUPERMARKET (1996) PTE LTD,1.37368393,103.87141698,CE12H94B000,542B,SERANGOON NORTH AVENUE 3,552542,20171129183653
VINAYAK TRADERS PTE. LTD.,1.32048426,103.72672284,SW16814X000,1,JALAN PAPAN,619392,20171129183653
U STARS SUPERMARKET PTE. LTD.,1.38977025,103.89278716,NE17098V000,215C,COMPASSVALE DRIVE,543215,20171129183653
PHANG NEE ENTERPRISE PTE. LTD.,1.32078791,103.72975134,SW09426V000,2D,JALAN PAPAN,619415,20171129183653
COLD STORAGE SINGAPORE (1983) PTE LTD,1.44176715,103.82449508,NW08385B000,604,SEMBAWANG ROAD,758459,20171129183653
SHENG SIONG SUPERMARKET PTE LTD,1.45074973,103.79684652,NW11702X000,200,WOODLANDS INDUSTRIAL PARK E7,757177,20171129183653
COLD STORAGE SINGAPORE (1983) PTE LTD,1.36645363,103.9645985,NE16139A000,259,PASIR RIS STREET 21,510259,20171129183653
AJMAL TRADE MART PTE. LTD.,1.40631205,103.76056172,NW09331A000,23,MANDAI ESTATE,729937,20171129183653
CHENNAI TRADING & SUPERMART PTE. LTD.,1.32048426,103.72672284,SW16921N000,1,JALAN PAPAN,619392,20171129183653
GW TRADER PTE. LTD.,1.41833138,103.89644789,CE15023A000,8,SELETAR NORTH LINK,797455,20171129183653
PRIME SUPERMARKET LIMITED,1.35894637,103.75036581,J02017N000,373,BUKIT BATOK STREET 31,650373,20180711174048
HAO MART PTE. LTD.,1.31935027,103.94363236,SE17500A000,69,BEDOK SOUTH AVENUE 3,460069,20171129183653
BALASUBRAMANIYAN KANNADASAN,1.43594536,103.75400843,J87134E000,257,KRANJI ROAD,739503,20171129183654
COLD STORAGE SINGAPORE (1983) PTE LTD,1.42489932,103.84724979,B92077A000,418,YISHUN AVENUE 11,760418,20171129183653
COLD STORAGE SINGAPORE (1983) PTE LTD,1.45273623,103.81724928,NW07636K000,406A,SEMBAWANG DRIVE,751406,20171129183653
FOODIE MARKET PLACE PTE. LTD.,1.30608637,103.89614964,SE15043B000,313,TANJONG KATONG ROAD,437096,20171129183654
MALAR MARKETING PTE. LTD.,1.3133581,103.627437,SW16H70N000,69,TUAS SOUTH AVENUE 1,637589,20171129183653
NG LIAN TEE,1.33166478,103.8070338,CE09902A000,7,GREENDALE AVENUE,289504,20171129183654
YEO HOCK HENG,1.31357605,103.8818778,CE09744N000,5,ALJUNIED ROAD,389797,20171129183654
PRIME SUPERMARKET LIMITED,1.39652618,103.90885077,S02127E000,108,PUNGGOL FIELD,820108,20171129183653
SHENG SIONG SUPERMARKET PTE LTD,1.35590219,103.94591219,NE15002X000,506,TAMPINES CENTRAL 1,520506,20171129183653
GOWRI'S GLOBAL MARKETING PTE. LTD.,1.41072219,103.76839597,NW16252K000,460,MANDAI ROAD,729760,20171129183654
YS LOGISTICS (S) PTE. LTD.,1.30859346,103.72231684,SW11146X000,15,JALAN TEPONG,619336,20171129183653
COLD STORAGE SINGAPORE (1983) PTE LTD,1.37423951,103.83948919,B02032E000,161,ANG MO KIO AVENUE 4,560161,20171129183653
SHENG SIONG SUPERMARKET PTE LTD,1.31272055,103.8786415,CE12546B000,301,GEYLANG ROAD,389344,20171129183654
BISMILLAH MINIMART PTE. LTD.,1.40754324,103.75809498,NW13J23J000,32,MANDAI ESTATE,729939,20171129183653
DE ESPERTO MINIMART PTE. LTD.,1.45122064,103.79785342,NW14006E000,190,WOODLANDS INDUSTRIAL PARK E7,757178,20171129183654
HAO MART PTE. LTD.,1.37343025,103.77392409,NW16634L000,205,PETIR ROAD,670205,20171129183653
COLD STORAGE SINGAPORE (1983) PTE LTD,1.38358044,103.77076831,B02026B000,445,FAJAR ROAD,670445,20171129183653
COLD STORAGE SINGAPORE (1983) PTE LTD,1.38199703,103.89703108,NE06429X000,266,COMPASSVALE BOW,540266,20171129183653
U STARS SUPERMARKET PTE. LTD.,1.40541354,103.8968239,NE15440C000,261,PUNGGOL WAY,820261,20171129183653
HAO MART PTE. LTD.,1.31346904,103.87700475,CE11B47P000,32,LORONG 11 GEYLANG,388724,20171129183654
COLD STORAGE SINGAPORE (1983) PTE LTD,1.30756237,103.8293522,W02079B000,1,CLAYMORE DRIVE,229594,20171129183653
I-TEC SUPERMART PTE LTD,1.31328862,103.88515315,SE11136C000,498/500,GEYLANG ROAD,389456,20171129183654
COLD STORAGE SINGAPORE (1983) PTE LTD,1.36012371,103.76754239,J02011C000,464,UPPER BUKIT TIMAH ROAD,678077,20171129183654
PRIME SUPERMARKET (1996) PTE LTD,1.42539842,103.83325904,NW12G73N000,761,YISHUN STREET 72,760761,20171129183653
D-RON INVESTMENTS PTE. LTD.,1.4169078,103.89601877,CE15042P000,2,SELETAR NORTH LINK,797601,20171129183653
TAN PAK NANG,1.33312324,103.8788419,SE06465L000,387,UPPER ALJUNIED ROAD,367872,20171129183654
COLD STORAGE SINGAPORE (1983) PTE LTD,1.37454929,103.93708818,NE09314N000,776,PASIR RIS STREET 71,510776,20171129183653
GOWRI'S GLOBAL MARKETING PTE. LTD.,1.32888601,103.67712999,SW08907C000,555,UPPER JURONG ROAD,638368,20171129183653
AJMAL SUPER MART PTE. LTD.,1.31396452,103.62576466,SW14718K000,70,TUAS SOUTH AVENUE 1,637285,20171129183653
PRIME SUPERMARKET LIMITED,1.39484816,103.89604227,S02151E000,263,COMPASSVALE STREET,540263,20171129183653
SHAFEN SUPERMARKET & TRADING (S) PTE. LTD.,1.33641798,103.75180739,SW14017K000,18,TOH GUAN ROAD EAST,608596,20171129183653
COLD STORAGE SINGAPORE (1983) PTE LTD,1.31617743,103.83781498,W02064P000,36A,DUNEARN ROAD,309426,20171129183653
FORTUNE SUPERMARKET PTE. LTD.,1.45551208,103.81454029,NW14040B000,463,SEMBAWANG DRIVE,750463,20171129183653
SONG FISH DEALER PTE LTD,1.33320022,103.74317043,SW17592A000,50,JURONG GATEWAY ROAD,608549,20171129183653
PRB TRADING PTE. LTD.,1.31208877,103.87738927,CE10085L000,230,GEYLANG ROAD,389290,20171129183654
ZAC MEAT & POULTRY PTE LTD,1.31574933,103.92585703,SE14C27C000,1B,FIGARO STREET,458322,20171129183654
AJMAL TRADE MART PTE. LTD.,1.43069359,103.7592373,SW12L48X000,12,KRANJI ROAD,739522,20171129183654
LABIBA ENTERPRISE PTE. LTD.,1.39657416,103.87285158,CE13S05E000,249,JALAN KAYU,799473,20171129183654
COLD STORAGE SINGAPORE (1983) PTE LTD,1.44275332,103.79054802,B02037X000,883,WOODLANDS STREET 82,730883,20171129183653
PHAN NEE TRADING LLP,1.46138854,103.81811128,NW10192C000,49,ADMIRALTY ROAD WEST,757444,20171129183654
SADIA SUPERMARKET & TRADING (S) PTE. LTD.,1.31069429,103.63019002,SW09288C000,14,TECH PARK CRESCENT,638118,20171129183653
NPS IMPEX PTE. LTD,1.29895147,103.62751791,SW15681P000,21,TUAS VIEW SQUARE,637640,20171129183654
BANGLADESH SUPER MARKET PTE. LTD.,1.45343693,103.83252637,B90051N000,1024,SEMBAWANG ROAD,758498,20171129183654
COLD STORAGE SINGAPORE (1983) PTE LTD,1.28355873,103.85850575,CE10K82J000,2,BAYFRONT AVENUE,18972,20171129183653
KAVI TRADERS PTE. LTD.,1.31332235,103.62791699,SW16B85N000,69R,TUAS SOUTH AVENUE 1,639926,20171129183653
SHENG SIONG SUPERMARKET PTE LTD,1.34878489,103.70341566,SW07209E000,7,JURONG WEST AVENUE 5,649486,20171129183654
PRIME SUPERMARKET LIMITED,1.3232896,103.92414964,E02041X000,25A,CHAI CHEE ROAD,461025,20171129183653
COLD STORAGE SINGAPORE (1983) PTE LTD,1.35011243,103.7245987,J03056N000,492,JURONG WEST STREET 41,640492,20171129183654
COLD STORAGE SINGAPORE (1983) PTE LTD,1.34560771,103.88269585,SE16595E000,2,JALAN LOKAM,537846,20171129183653
AZ SUPERMART PTE. LTD.,1.33809674,103.90994667,NE04109P000,21,KAKI BUKIT AVENUE 3,415920,20171129183654
SHENG SIONG SUPERMARKET PTE LTD,1.3324023,103.9255006,E02032V000,539A,BEDOK NORTH STREET 3,461539,20171129183653
PRIME SUPERMARKET (1996) PTE LTD,1.3520906,103.8793146,NE11529V000,159A,HOUGANG STREET 11,531159,20171129183653
