supermarket_name,supermarket_lat,supermarket_lng,block_number,street_name,unit_number,postcode
COLD STORAGE SINGAPORE (1983) PTE LTD,1.30484344,103.8238528,163,TANGLIN ROAD,2/3,247933
AJMAL TRADING GROUP PTE. LTD.,1.32210836,103.72748075,5,JALAN PAPAN,32,619396
PHAN NEE TRADING LLP,1.4443413,103.8390302,2B,YISHUN AVENUE 7,1,768929
COLD STORAGE SINGAPORE (1983) PTE LTD,1.31469214,103.89448053,11,TANJONG KATONG ROAD,36,437157
COLD STORAGE SINGAPORE (1983) PTE LTD,1.3232504,103.76726005,41,SUNSET WAY,01A,597071
THE SEAFOOD MARKET PLACE (BY SONG FISH) PTE. LTD.,1.43991608,103.80070121,676,WOODLANDS DRIVE 71,4,730676
U STARS PTE. LTD.,1.37860238,103.94197818,625,ELIAS ROAD,302,510625
LI LI CHENG SUPERMARKET (PUNGGOL) PTE. LTD.,1.40230301,103.90126239,273C,PUNGGOL PLACE,884,823273
SHENG SIONG SUPERMARKET PTE LTD,1.3077851,103.85701099,1,JALAN BERSEH,3/22,209037
AJMAL TRADING GROUP PTE. LTD.,1.46152555,103.80943895,2,WOODLANDS SECTOR 2,5,737723
COLD STORAGE SINGAPORE (1983) PTE LTD,1.3726457,103.85389071,525,ANG MO KIO AVENUE 10,2401,560525
COLD STORAGE SINGAPORE (1983) PTE LTD,1.33295873,103.91494183,631,BEDOK RESERVOIR ROAD,954,470631
SHENG SIONG SUPERMARKET PTE LTD,1.36754925,103.83674064,233,ANG MO KIO AVENUE 3,1168,560233
TAN KWEE ENG,1.4300711,103.84239645,327,YISHUN RING ROAD,1320,760327
PRIME SUPERMARKET LIMITED,1.33429241,103.87874621,1,UPPER ALJUNIED LANE,1,360001
MURUGAN TRADERS PTE LTD,1.3249198,103.70509971,9,TRACTOR ROAD,,627970
SHENG SIONG SUPERMARKET PTE LTD,1.44680413,103.80548758,785E,WOODLANDS RISE,1,735785
SHENG SIONG SUPERMARKET PTE LTD,1.4201555,103.84355889,675,YISHUN AVENUE 4,10,760675
COLD STORAGE SINGAPORE (1983) PTE LTD,1.30358269,103.76528452,154,WEST COAST ROAD,,127371
COLD STORAGE SINGAPORE (1983) PTE LTD,1.37332122,103.88636554,683,HOUGANG AVENUE 8,903,530683
SUZYAMEER FROZEN PTE. LTD.,1.35226231,103.9535865,201D,TAMPINES STREET 21,1161,524201
KAI SOON SUPERMARKET PTE. LTD.,1.42213865,103.83288267,780,YISHUN RING ROAD,3546,760780
B & S MINI MART PTE. LTD.,1.31245105,103.87962232,310,GEYLANG ROAD,,389349
HAO MART PTE. LTD.,1.3999042,103.91935276,658,PUNGGOL EAST,1,820658
COLD STORAGE SINGAPORE (1983) PTE LTD,1.30982227,103.9022325,291,JOO CHIAT ROAD,1,427543
SWISS BUTCHERY (2013) PRIVATE LIMITED,1.3317611,103.80658689,30,GREENWOOD AVENUE,,289230
ROSWELL ENTERPRISE PTE LTD,1.33183241,103.80649242,34,GREENWOOD AVENUE,,289236
COLD STORAGE SINGAPORE (1983) PTE LTD,1.30119131,103.90511359,80,MARINE PARADE ROAD,27/62,449269
SHENG SIONG SUPERMARKET PTE LTD,1.3701886,103.84341324,122,ANG MO KIO AVENUE 3,1753,560122
ABEDIN TRADING PTE. LTD.,1.31420655,103.88669976,599,GEYLANG ROAD,1,389538
SONG FISH DEALER PTE LTD,1.37834971,103.76274118,17,PETIR ROAD,3,678278
BLUEWATER SEAFOOD PTE. LTD.,1.30344597,103.80938167,8D,DEMPSEY ROAD,1,249672
SHENG SIONG SUPERMARKET PTE LTD,1.35572308,103.73930311,440,BUKIT BATOK WEST AVENUE 8,10,650440
YES SUPERMARKET PTE LTD,1.35345316,103.95300992,201B,TAMPINES STREET 21,1091,522201
G8 MART PTE. LTD.,1.36538422,103.85296696,421,ANG MO KIO AVENUE 10,1161,560421
THE FISHWIVES PTE. LTD.,1.32257318,103.81424555,501,BUKIT TIMAH ROAD,05B,259760
COLD STORAGE SINGAPORE (1983) PTE LTD,1.30222178,103.87615267,5,STADIUM WALK,1,397693
COLD STORAGE SINGAPORE (1983) PTE LTD,1.32021102,103.84365677,238,THOMSON ROAD,28/29,307683
LITTLE FARMS PTE. LTD.,1.3106435,103.79524617,3,LORONG LIPUT,4,277725
JSJ CORPORATION PTE. LTD.,1.31845201,103.98586941,31A,TANAH MERAH COAST ROAD,1,498720
LOTTE MART PTE. LTD.,1.34082661,103.77421326,17,LORONG KILAT,2,598139
VIVA CORP SERVICES PTE. LTD.,1.33733862,103.90373509,23,KAKI BUKIT ROAD 3,2,415812
COLD STORAGE SINGAPORE (1983) PTE LTD,1.30974242,103.86410165,12,KALLANG AVENUE,47,339511
COLD STORAGE SINGAPORE (1983) PTE LTD,1.30684883,103.78821454,1,VISTA EXCHANGE GREEN,,138617
SHENG SIONG SUPERMARKET PTE LTD,1.31423937,103.87091404,11,UPPER BOON KENG ROAD,901,380011
PRIME SUPERMARKET (1996) PTE LTD,1.35370297,103.89068079,106,HOUGANG AVENUE 1,1213,530106
WONS BUTCHERY PTE. LTD.,1.30570971,103.82446382,1,ST. MARTIN'S DRIVE,1,257988
"CHEE MIN KUAN, SIMON",1.30373373,103.89649824,342,TANJONG KATONG ROAD,,437112
THE SEAFOOD MARKET PLACE (BY SONG FISH) PTE. LTD.,1.40287845,103.91319575,681,PUNGGOL DRIVE,9,820681
PAN PACIFIC INTERNATIONAL HOLDINGS PTE. LTD.,1.27458822,103.84347074,100,TRAS STREET,1/5,79027
SHENG SIONG SUPERMARKET PTE LTD,1.40262197,103.9165196,660A,EDGEDALE PLAINS,1,821660
T S J INDUSTRIAL (S) PTE. LTD.,1.33683097,103.75434143,48,TOH GUAN ROAD EAST,130,608586
MUSTAFA HOLDINGS PTE LTD,1.30975275,103.85570159,147,SYED ALWI ROAD,,207706
HAO MART PTE. LTD.,1.32821169,103.85981258,17,JALAN TENTERAM,128,321017
COLD STORAGE SINGAPORE (1983) PTE LTD,1.43600784,103.78568873,1,WOODLANDS SQUARE,31/32,738099
COLD STORAGE SINGAPORE (1983) PTE LTD,1.33149147,103.80680926,20,GREENWOOD AVENUE,,289215
SHENG SIONG SUPERMARKET PTE LTD,1.32546808,103.72522155,3,YUAN CHING ROAD,,618642
7SEVEN PTE. LTD.,1.45605973,103.78643692,51,NORTH COAST AVENUE,3,756992
SHENG SIONG SUPERMARKET PTE LTD,1.39922857,103.88965392,338,ANCHORVALE CRESCENT,11,540338
SHENG SIONG SUPERMARKET PTE LTD,1.43351253,103.77974686,4,WOODLANDS STREET 12,61,738623
MCP FAIRMART PTE LTD,1.35925941,103.75069464,BLK 371,BUKIT BATOK STREET 31,324,650371
COLD STORAGE SINGAPORE (1983) PTE LTD,1.28861469,103.80500997,370,ALEXANDRA ROAD,3/7,159953
LITTLE FARMS PTE. LTD.,1.29301786,103.82694081,491,RIVER VALLEY ROAD,20,248371
HUBER'S PTE. LTD.,1.30679241,103.81018582,22,DEMPSEY ROAD,,249679
MEAT THE BUTCHER PTE. LTD.,1.32437351,103.80935794,615,BUKIT TIMAH ROAD,,269716
YEO KENG GUAN,1.31661898,103.77894726,5,RIDGEWOOD CLOSE,,276696
COLD STORAGE SINGAPORE (1983) PTE LTD,1.4357608,103.83672388,291,YISHUN STREET 22,389/3,760291
COLD STORAGE SINGAPORE (1983) PTE LTD,1.29929407,103.78740406,1,FUSIONOPOLIS WAY,3,138632
SHENG SIONG SUPERMARKET PTE LTD,1.44886402,103.83239286,105,CANBERRA STREET,5,750105
COLD STORAGE SINGAPORE (1983) PTE LTD,1.34922419,103.93491252,829,TAMPINES STREET 81,284/8,520829
SADIA MINIMART PTE LTD,1.40852997,103.75940617,11,MANDAI ESTATE,16,729908
RAW MARKET PTE. LTD.,1.37558831,103.96083973,11,PASIR RIS LINK,48,518180
SEOUL BUTCHERY PTE. LTD.,1.34207496,103.7746328,13,YUK TONG AVENUE,,596318
SUPERNATURE PTE LTD,1.3061958,103.82850902,583,ORCHARD ROAD,,238884
COLD STORAGE SINGAPORE (1983) PTE LTD,1.31756197,103.78584062,293,HOLLAND ROAD,,278628
CHD @ SOON LEE PTE. LTD.,1.3321229,103.69907027,51,SOON LEE ROAD,51A,628088
COLD STORAGE SINGAPORE (1983) PTE LTD,1.35949664,103.88507993,205,HOUGANG STREET 21,133,530205
MD SYDUR RAHMAN,1.29501369,103.62672926,13,TUAS SOUTH STREET 5,1,637555
HAO MART PTE. LTD.,1.27784877,103.83081147,146,JALAN BUKIT MERAH,1074,160146
COLD STORAGE SINGAPORE (1983) PTE LTD,1.42969848,103.8357765,930,YISHUN AVENUE 2,6/7,769098
SHENG SIONG SUPERMARKET PTE LTD,1.30246409,103.76375097,720,CLEMENTI WEST STREET 2,144,120720
COLD STORAGE SINGAPORE (1983) PTE LTD,1.43084007,103.79341633,548,WOODLANDS DRIVE 44,37/38,730548
COLD STORAGE SINGAPORE (1983) PTE LTD,1.35067551,103.87186162,23,SERANGOON CENTRAL,44/45,556083
IROHA INTERNATIONAL PTE. LTD.,1.30074756,103.84504763,68,ORCHARD ROAD,17,238839
COLD STORAGE SINGAPORE (1983) PTE LTD,1.29225959,103.84256103,81,CLEMENCEAU AVENUE,18,239917
PHAN NEE INVESTMENTS (S) PTE LTD,1.37761084,103.71840375,500,OLD CHOA CHU KANG ROAD,21,698924
THE BUTCHER (SINGAPORE) PTE. LTD.,1.31192196,103.79684405,44,JALAN MERAH SAGA,50,278116
PRIME SUPERMARKET LIMITED,1.34873284,103.93401024,823,TAMPINES STREET 81,160,520823
SHENG SIONG SUPERMARKET PTE LTD,1.32213636,103.7382928,61,TEBAN GARDENS ROAD,21,600061
HAO MART PTE. LTD.,1.43359514,103.83968538,239,YISHUN RING ROAD,1150,760239
FOODIE MARKET PLACE PTE. LTD.,1.28345077,103.83537131,225,OUTRAM ROAD,,169038
U STARS PTE. LTD.,1.44062992,103.80619806,691,WOODLANDS DRIVE 73,6,730691
SHENG SIONG SUPERMARKET PTE LTD,1.39158704,103.87987249,417,FERNVALE LINK,11,790417
BHANDARI INTERNATIONAL PTE. LTD.,1.45132505,103.79109518,280,WOODLANDS INDUSTRIAL PARK E5 (PART OF),47,757322
PAN PACIFIC INTERNATIONAL HOLDINGS PTE. LTD.,1.30083892,103.83943474,181,ORCHARD ROAD,1/3,238896
LIN POH LING,1.34064293,103.8543345,212,LORONG 8 TOA PAYOH,43/45,310212
NAWAS GLOBAL PTE. LTD.,1.27164226,103.63351228,3,TUAS SOUTH STREET 12,16,636947
COLD STORAGE SINGAPORE (1983) PTE LTD,1.33177582,103.94620124,430,UPPER CHANGI ROAD,47,487048
WAN SIEW YOONG,1.28180062,103.84290817,4,SAGO LANE,103,50004
COLD STORAGE SINGAPORE (1983) PTE LTD,1.31867576,103.89255061,60,PAYA LEBAR ROAD,1/5,409051
PRIME SUPERMARKET LIMITED,1.30836527,103.86091279,803,KING GEORGE'S AVENUE,154,200803
COLD STORAGE SINGAPORE (1983) PTE LTD,1.30014248,103.85578698,230,VICTORIA STREET,16,188024
MEIDI-YA SINGAPORE CO (PTE) LTD,1.29151479,103.8445863,177,RIVER VALLEY ROAD,17,179030
V SURESH KUMAR,1.45982817,103.82007345,51,ADMIRALTY ROAD WEST - LODGE 1,,757443
COLD STORAGE SINGAPORE (1983) PTE LTD,1.33899462,103.79313381,200,TURF CLUB ROAD,,287994
HAO MART PTE. LTD.,1.3131751,103.88364667,448/450,GEYLANG ROAD,,389407
COLD STORAGE SINGAPORE (1983) PTE LTD,1.30372322,103.83524031,290,ORCHARD ROAD,14/15,238859
COLD STORAGE SINGAPORE (1983) PTE LTD,1.30074756,103.84504763,68,ORCHARD ROAD,15/16,238839
NTUC FAIRPRICE CO-OPERATIVE LTD,1.33166183,103.85048301,192,LORONG 4 TOA PAYOH,672,310192
NTUC FAIRPRICE CO-OPERATIVE LTD,1.34837105,103.94812893,107,TAMPINES STREET 11,353/9,521107
NTUC FAIRPRICE CO-OPERATIVE LTD,1.33253591,103.86703684,6,POTONG PASIR AVENUE 2,1,358361
NTUC FAIRPRICE CO-OPERATIVE LTD,1.34270619,103.9530245,3,SIMEI STREET 6,1,528833
NTUC FAIRPRICE CO-OPERATIVE LTD,1.33653868,103.88876271,18,TAI SENG STREET,13,539775
NTUC FAIRPRICE CO-OPERATIVE LTD,1.31886941,103.89473136,10,EUNOS ROAD 8,101,408600
JMD RETAIL PTE. LTD.,1.30416447,103.89632702,330,TANJONG KATONG ROAD,,437106
NTUC FAIRPRICE CO-OPERATIVE LTD,1.3973019,103.74655807,21,CHOA CHU KANG NORTH 6,1/7,689578
NTUC FAIRPRICE CO-OPERATIVE LTD,1.39712886,103.74732972,61,CHOA CHU KANG DRIVE,1,689715
NTUC FAIRPRICE CO-OPERATIVE LTD,1.27338253,103.80893482,78A,TELOK BLANGAH STREET 32,1,101078
COLD STORAGE SINGAPORE (1983) PTE LTD,1.27737236,103.8528448,5,STRAITS VIEW,15/16,18935
SADIA SUPERMARKET & TRADING (S) PTE. LTD.,1.27030978,103.63416392,12,TUAS SOUTH STREET 13,20/21,636937
COLD STORAGE SINGAPORE (1983) PTE LTD,1.38529556,103.76617053,524A,JELAPANG ROAD,13/18,671524
NTUC FAIRPRICE CO-OPERATIVE LTD,1.38493202,103.90155803,118,RIVERVALE DRIVE,8,540118
NTUC FAIRPRICE CO-OPERATIVE LTD,1.35437074,103.98516965,65,AIRPORT BOULEVARD,10,819663
NTUC FAIRPRICE CO-OPERATIVE LTD,1.33491977,103.96365391,8,CHANGI BUSINESS PARK AVENUE 1,,486018
NTUC FAIRPRICE CO-OPERATIVE LTD,1.35519094,103.98875098,60,AIRPORT BOULEVARD,29,819643
NTUC FAIRPRICE CO-OPERATIVE LTD,1.30384328,103.87275071,1,STADIUM PLACE,29,397628
NTUC FAIRPRICE CO-OPERATIVE LTD,1.33931504,103.705351,63,JURONG WEST CENTRAL 3,,648331
NTUC FAIRPRICE CO-OPERATIVE LTD,1.31485323,103.7642482,3155,COMMONWEALTH AVENUE WEST,,129588
COLD STORAGE SINGAPORE (1983) PTE LTD,1.24775862,103.8419211,31,OCEAN WAY,26/27,98375
COLD STORAGE SINGAPORE (1983) PTE LTD,1.31943618,103.82734585,383,BUKIT TIMAH ROAD,09A,259727
NTUC FAIRPRICE CO-OPERATIVE LTD,1.33296549,103.84705035,500,LORONG 6 TOA PAYOH,,310500
NTUC FAIRPRICE CO-OPERATIVE LTD,1.33432515,103.96238931,5,CHANGI BUSINESS PARK CENTRAL 1,8/11,486038
NTUC FAIRPRICE CO-OPERATIVE LTD,1.30476357,103.7816972,28,DOVER CRESCENT,83,130028
NTUC FAIRPRICE CO-OPERATIVE LTD,1.32424555,103.94156871,57,NEW UPPER CHANGI ROAD,1334,461057
NTUC FAIRPRICE CO-OPERATIVE LTD,1.33177055,103.8792945,401,MACPHERSON ROAD,22/29,368125
COLD STORAGE SINGAPORE (1983) PTE LTD,1.34962234,103.8498817,512,BISHAN STREET 13,524,570512
NTUC FAIRPRICE CO-OPERATIVE LTD,1.37976754,103.93620757,734,PASIR RIS STREET 72,37,510734
NTUC FAIRPRICE CO-OPERATIVE LTD,1.35067551,103.87186162,23,SERANGOON CENTRAL,42,556083
COLD STORAGE SINGAPORE (1983) PTE LTD,1.26389582,103.82158925,1,HARBOURFRONT WALK,23,98585
LAMIAH ENTERPRISE PTE. LTD.,1.31146785,103.63034009,5,TECH PARK CRESCENT,2,638127
NTUC FAIRPRICE CO-OPERATIVE LTD,1.39219777,103.90447161,11,RIVERVALE CRESCENT,1,545082
NTUC FAIRPRICE CO-OPERATIVE LTD,1.35722282,103.84378526,279,BISHAN STREET 24,62/64,570279
NTUC FAIRPRICE CO-OPERATIVE LTD,1.31553965,103.8987649,2,JOO CHIAT ROAD,1139,420002
NTUC FAIRPRICE CO-OPERATIVE LTD,1.3211898,103.90326628,5,EUNOS CRESCENT,2619,400005
NTUC FAIRPRICE CO-OPERATIVE LTD,1.33233468,103.93805129,89,BEDOK NORTH STREET 4,77/79,460089
NTUC FAIRPRICE CO-OPERATIVE LTD,1.31414997,103.88854491,612-620,GEYLANG ROAD,,389551
NTUC FAIRPRICE CO-OPERATIVE LTD,1.36032332,103.95312597,475,TAMPINES STREET 44,145,520475
NTUC FAIRPRICE CO-OPERATIVE LTD,1.35466902,103.83091979,301,UPPER THOMSON ROAD,25,574408
NTUC FAIRPRICE CO-OPERATIVE LTD,1.30782737,103.88476386,41,JALAN TIGA,5,390041
NTUC FAIRPRICE CO-OPERATIVE LTD,1.32477208,103.92926766,311,NEW UPPER CHANGI ROAD,60,467360
COLD STORAGE SINGAPORE (1983) PTE LTD,1.29380236,103.83175791,1,KIM SENG PROMENADE,18/19,237994
POPULAR SUPERMARKET PTE LTD,1.27030978,103.63416392,12,TUAS SOUTH STREET 13,18/19,636937
NTUC FAIRPRICE CO-OPERATIVE LTD,1.32397688,103.91068966,110,LENGKONG TIGA,233/5,410110
NTUC FAIRPRICE CO-OPERATIVE LTD,1.30385031,103.90285038,30,EAST COAST ROAD,6/9,428751
NTUC FAIRPRICE CO-OPERATIVE LTD,1.28112228,103.81003132,108,DEPOT ROAD,1,100108
NTUC FAIRPRICE CO-OPERATIVE LTD,1.38003058,103.75311842,140,TECK WHYE LANE,351,680140
NTUC FAIRPRICE CO-OPERATIVE LTD,1.33326818,103.74017674,2,JURONG EAST CENTRAL 1,12,609731
NTUC FAIRPRICE CO-OPERATIVE LTD,1.36650698,103.74684712,2,BUKIT BATOK WEST AVENUE 7,10,659003
COLD STORAGE SINGAPORE (1983) PTE LTD,1.34813379,103.68541847,35,STUDENTS WALK,,639548
NTUC FAIRPRICE CO-OPERATIVE LTD,1.28977814,103.82679376,50,HAVELOCK ROAD,755,160050
NTUC FAIRPRICE CO-OPERATIVE LTD,1.31248299,103.76547676,451,CLEMENTI AVENUE 3,307,120451
NTUC FAIRPRICE CO-OPERATIVE LTD,1.33865677,103.77856047,1,JALAN ANAK BUKIT,1,588996
NTUC FAIRPRICE CO-OPERATIVE LTD,1.33375343,103.73937139,135,JURONG EAST STREET 13,337,600135
NTUC FAIRPRICE CO-OPERATIVE LTD,1.33504202,103.72026802,399,YUNG SHENG ROAD,,610399
NTUC FAIRPRICE CO-OPERATIVE LTD,1.29277433,103.78408402,1,LOWER KENT RIDGE ROAD,16,119082
NTUC FAIRPRICE CO-OPERATIVE LTD,1.33320022,103.74317043,50,JURONG GATEWAY ROAD,21/22,608549
NTUC FAIRPRICE CO-OPERATIVE LTD,1.39207388,103.74309958,533,CHOA CHU KANG STREET 51,11,680533
NTUC FAIRPRICE CO-OPERATIVE LTD,1.32052027,103.74265152,37,TEBAN GARDENS ROAD,,600037
PHAN NEE INVESTMENTS (S) PTE LTD,1.3719328,103.72085742,500,OLD CHOA CHU KANG ROAD,2,698928
NTUC FAIRPRICE CO-OPERATIVE LTD,1.2831195,103.81764287,166,BUKIT MERAH CENTRAL,3527,150166
NTUC FAIRPRICE CO-OPERATIVE LTD,1.42919468,103.78113689,30,WOODLANDS AVENUE 1,,739065
SHENG SIONG SUPERMARKET PTE LTD,1.35303825,103.74394845,451,BUKIT BATOK WEST AVENUE 6,10,650451
NTUC FAIRPRICE CO-OPERATIVE LTD,1.43755656,103.7951364,888,WOODLANDS DRIVE 50,757,730888
NTUC FAIRPRICE CO-OPERATIVE LTD,1.34770148,103.75704459,280,BUKIT BATOK EAST AVENUE 3,315,650280
SHINVA AGRO FOODS PTE. LTD.,1.30091147,103.62778889,115,TUAS VIEW WALK 1,,637734
NTUC FAIRPRICE CO-OPERATIVE LTD,1.34259104,103.7391995,249,JURONG EAST STREET 24,106,600249
NTUC FAIRPRICE CO-OPERATIVE LTD,1.28646346,103.82693508,302,TIONG BAHRU ROAD,1,168732
NTUC FAIRPRICE CO-OPERATIVE LTD,1.41698316,103.83521819,849,YISHUN RING ROAD,3703,760849
NTUC FAIRPRICE CO-OPERATIVE LTD,1.3665583,103.84162409,215,ANG MO KIO AVENUE 1,877,560215
NTUC FAIRPRICE CO-OPERATIVE LTD,1.32099295,103.87039,71,KALLANG BAHRU,531,330071
NTUC FAIRPRICE CO-OPERATIVE LTD,1.32460665,103.67809637,1,JOO KOON CIRCLE,21,629117
THE QUALITYMART DEPOT PTE. LTD.,1.28220136,103.80302376,180,DEPOT ROAD,4,109684
NTUC FAIRPRICE CO-OPERATIVE LTD,1.32512653,103.85105564,360,BALESTIER ROAD,0,329783
NTUC FAIRPRICE CO-OPERATIVE LTD,1.27624053,103.84300612,5,TANJONG PAGAR PLAZA,1,81005
NTUC FAIRPRICE CO-OPERATIVE LTD,1.38054244,103.76399395,1,JELEBU ROAD,15,677743
NTUC FAIRPRICE CO-OPERATIVE LTD,1.44822653,103.81946211,30,SEMBAWANG DRIVE,1/3,757713
NTUC FAIRPRICE CO-OPERATIVE LTD,1.33205938,103.72245289,63/66,YUNG KUANG ROAD,,610063
NTUC FAIRPRICE CO-OPERATIVE LTD,1.3455121,103.73121915,BLK 345,JURONG EAST STREET 31,29,600345
NTUC FAIRPRICE CO-OPERATIVE LTD,1.29301786,103.82694081,491,RIVER VALLEY ROAD,14,248371
NTUC FAIRPRICE CO-OPERATIVE LTD,1.31188596,103.75908094,502,WEST COAST DRIVE,41,120502
HONESTBEE PTE. LTD.,1.27604519,103.79718734,34,BOON LEAT TERRACE,,119866
NTUC FAIRPRICE CO-OPERATIVE LTD,1.42452848,103.84659555,414,YISHUN RING ROAD,1853,760414
NTUC FAIRPRICE CO-OPERATIVE LTD,1.32383513,103.80999958,587,BUKIT TIMAH ROAD,,269707
NTUC FAIRPRICE CO-OPERATIVE LTD,1.33983015,103.70646089,1,JURONG WEST CENTRAL 2,9,648886
NTUC FAIRPRICE CO-OPERATIVE LTD,1.34716236,103.74280788,166,BUKIT BATOK WEST AVENUE 8,,650166
NTUC FAIRPRICE CO-OPERATIVE LTD,1.29727532,103.83853393,131,KILLINEY ROAD,"01,02",239571
NTUC FAIRPRICE CO-OPERATIVE LTD,1.42952522,103.83499514,301,YISHUN AVENUE 2,2,769093
NTUC FAIRPRICE CO-OPERATIVE LTD,1.38509601,103.76021844,628,SENJA ROAD,1,670628
NTUC FAIRPRICE CO-OPERATIVE LTD,1.41103598,103.8440399,1,ORCHID CLUB ROAD,34,769162
NTUC FAIRPRICE CO-OPERATIVE LTD,1.3487108,103.74933453,10,BUKIT BATOK CENTRAL,8,659958
NTUC FAIRPRICE CO-OPERATIVE LTD,1.2927034,103.81095896,57,DAWSON ROAD,1,142057
SHENG SIONG SUPERMARKET PTE LTD,1.375635,103.87199642,19,SERANGOON NORTH AVENUE 5,1/2,554913
NTUC FAIRPRICE CO-OPERATIVE LTD,1.27367658,103.80112696,460,ALEXANDRA ROAD,,119963
NTUC FAIRPRICE CO-OPERATIVE LTD,1.31427861,103.77135057,352,CLEMENTI AVENUE 2,141,120352
NTUC FAIRPRICE CO-OPERATIVE LTD,1.34833335,103.72430733,498,JURONG WEST STREET 41,,640498
SHINVA AGRO FOODS PTE. LTD.,1.3110024,103.63157233,11,TECH PARK CRESCENT,3,638121
NTUC FAIRPRICE CO-OPERATIVE LTD,1.43262603,103.7740512,71,WOODLANDS AVENUE 3,1,739044
NTUC FAIRPRICE CO-OPERATIVE LTD,1.28645354,103.8082424,1,JALAN BUKIT MERAH,4500,150001
NTUC FAIRPRICE CO-OPERATIVE LTD,1.32042968,103.84389213,10,SINARAN DRIVE,47/48,307506
NTUC FAIRPRICE CO-OPERATIVE LTD,1.3714092,103.84708288,712,ANG MO KIO AVENUE 6,4056,560712
NTUC FAIRPRICE CO-OPERATIVE LTD,1.39213828,103.87249056,447A,JALAN KAYU,2,791447
NTUC FAIRPRICE CO-OPERATIVE LTD,1.34528144,103.94534429,138,TAMPINES STREET 11,136,521138
COLD STORAGE SINGAPORE (1983) PTE LTD,1.35431556,103.94501946,10,TAMPINES CENTRAL 1,1/2,529536
NTUC FAIRPRICE CO-OPERATIVE LTD,1.3552429,103.93162364,872C,TAMPINES STREET 86,1,523872
NTUC FAIRPRICE CO-OPERATIVE LTD,1.30880609,103.86131196,808,FRENCH ROAD,1,200808
PAN PACIFIC INTERNATIONAL HOLDINGS PTE. LTD.,1.31139349,103.85648712,180,KITCHENER ROAD,6,208539
NTUC FAIRPRICE CO-OPERATIVE LTD,1.30141956,103.90711266,6,MARINE PARADE CENTRAL,,449411
NTUC FAIRPRICE CO-OPERATIVE LTD,1.35542176,103.93431523,866A,TAMPINES STREET 83,1,521866
NTUC FAIRPRICE CO-OPERATIVE LTD,1.40287845,103.91319575,681,PUNGGOL DRIVE,1,820681
NTUC FAIRPRICE CO-OPERATIVE LTD,1.36924891,103.84839924,53,ANG MO KIO AVENUE 3,40,569933
NTUC FAIRPRICE CO-OPERATIVE LTD,1.31536303,103.84943451,43,CAMBRIDGE ROAD,15,210043
NTUC FAIRPRICE CO-OPERATIVE LTD,1.31139349,103.85648712,180,KITCHENER ROAD,9/10,208539
NTUC FAIRPRICE CO-OPERATIVE LTD,1.27707708,103.83142586,150,SILAT AVENUE,44,160150
NTUC FAIRPRICE CO-OPERATIVE LTD,1.32708486,103.84647647,20,AH HOOD ROAD,1,329984
NTUC FAIRPRICE CO-OPERATIVE LTD,1.28668027,103.81376634,20,LENGKOK BAHRU,13,159053
NTUC FAIRPRICE CO-OPERATIVE LTD,1.31909344,103.86390533,30,BENDEMEER ROAD,871,330030
NTUC FAIRPRICE CO-OPERATIVE LTD,1.31230753,103.92523454,934,EAST COAST ROAD,,459125
NTUC FAIRPRICE CO-OPERATIVE LTD,1.39418409,103.91297644,168,PUNGGOL FIELD,1,820168
NTUC FAIRPRICE CO-OPERATIVE LTD,1.38233698,103.89360784,BLK 277C,COMPASSVALE LINK,13,543277
NTUC FAIRPRICE CO-OPERATIVE LTD,1.43507789,103.78661962,900,SOUTH WOODLANDS DRIVE,1,730900
NTUC FAIRPRICE CO-OPERATIVE LTD,1.38621835,103.8929955,279,SENGKANG EAST AVENUE,6,540279
NTUC FAIRPRICE CO-OPERATIVE LTD,1.36321586,103.83544536,410A,SIN MING AVENUE,2,571410
YOUR GROCER PRIVATE LIMITED,1.28807688,103.82708128,34,JALAN BUKIT HO SWEE,870,160034
COLD STORAGE SINGAPORE (1983) PTE LTD,1.28022769,103.8533493,8A,MARINA BOULEVARD,44-50,18984
NTUC FAIRPRICE CO-OPERATIVE LTD,1.32176645,103.88667279,114,ALJUNIED AVENUE 2,75,380114
NTUC FAIRPRICE CO-OPERATIVE LTD,1.30836165,103.90798882,239/255,EAST COAST ROAD,,428932
NTUC FAIRPRICE CO-OPERATIVE LTD,1.38506836,103.74495039,21,CHOA CHU KANG AVENUE 4,3,689812
NTUC FAIRPRICE CO-OPERATIVE LTD,1.40461003,103.90866561,612,PUNGGOL DRIVE,6,820612
NTUC FAIRPRICE CO-OPERATIVE LTD,1.28480735,103.82929801,18 /20,KIM TIAN ROAD,,169252
NTUC FAIRPRICE CO-OPERATIVE LTD,1.32379608,103.85567063,80,LORONG LIMAU,191,320080
COLD STORAGE SINGAPORE (1983) PTE LTD,1.29487905,103.8576755,3,TEMASEK BOULEVARD,,38983
COLD STORAGE SINGAPORE (1983) PTE LTD,1.27461794,103.84431956,16,ENGGOR STREET,,79717
NTUC FAIRPRICE CO-OPERATIVE LTD,1.39139306,103.87606766,33,SENGKANG WEST AVENUE,24,797653
NTUC FAIRPRICE CO-OPERATIVE LTD,1.33889072,103.84899332,95,LORONG 4 TOA PAYOH,68,310095
NTUC FAIRPRICE CO-OPERATIVE LTD,1.3259407,103.93164003,212,BEDOK NORTH STREET 1,147,460212
NTUC FAIRPRICE CO-OPERATIVE LTD,1.3697994,103.8730358,152B,SERANGOON NORTH AVENUE 1,384,552152
NTUC FAIRPRICE CO-OPERATIVE LTD,1.36516071,103.86504186,1,MAJU AVENUE,11/14,556679
NTUC FAIRPRICE CO-OPERATIVE LTD,1.35349616,103.93968359,51,TAMPINES AVENUE 4,1,528523
U STARS SUPERMARKET PTE. LTD.,1.35126411,103.92936384,878C,TAMPINES AVENUE 8,65,523878
NTUC FAIRPRICE CO-OPERATIVE LTD,1.30585583,103.83298436,6,SCOTTS ROAD,,228209
NTUC FAIRPRICE CO-OPERATIVE LTD,1.27458822,103.84347074,100,TRAS STREET,1,79027
NTUC FAIRPRICE CO-OPERATIVE LTD,1.37089456,103.85639651,574,ANG MO KIO AVENUE 10,1847,560574
NTUC FAIRPRICE CO-OPERATIVE LTD,1.37743006,103.90371287,476,UPPER SERANGOON VIEW,18,530476
NTUC FAIRPRICE CO-OPERATIVE LTD,1.3126545,103.8725418,5,UPPER BOON KENG ROAD,5,380005
NTUC FAIRPRICE CO-OPERATIVE LTD,1.34634819,103.71242932,221,BOON LAY PLACE,200,640221
NTUC FAIRPRICE CO-OPERATIVE LTD,1.37714073,103.95359909,1,PASIR RIS CLOSE,127,519599
"JEWISH WELFARE BOARD, SINGAPORE, THE",1.29827329,103.85059951,24,WATERLOO STREET,1,187950
SF (313) PTE. LTD.,1.29487905,103.8576755,3,TEMASEK BOULEVARD,616,38983
NTUC FAIRPRICE CO-OPERATIVE LTD,1.32855657,103.88534991,77,CIRCUIT ROAD,464/6,370077
NTUC FAIRPRICE CO-OPERATIVE LTD,1.37177996,103.89416538,100,HOUGANG AVENUE 10,1,538767
NTUC FAIRPRICE CO-OPERATIVE LTD,1.30918211,103.79254749,36,HOLLAND DRIVE,3,270036
NTUC FAIRPRICE CO-OPERATIVE LTD,1.43991608,103.80070121,676,WOODLANDS DRIVE 71,2,730676
NTUC FAIRPRICE CO-OPERATIVE LTD,1.41799926,103.84123647,598,YISHUN RING ROAD,1,768698
COLD STORAGE SINGAPORE (1983) PTE LTD,1.38739537,103.86913598,1,SELETAR ROAD,11,807011
COLD STORAGE SINGAPORE (1983) PTE LTD,1.35018916,103.74902198,1,BUKIT BATOK CENTRAL LINK,1,658713
NTUC FAIRPRICE CO-OPERATIVE LTD,1.44956648,103.81864114,355,SEMBAWANG WAY,1,750355
SHENG SIONG SUPERMARKET PTE LTD,1.38060512,103.76004159,1,WOODLANDS ROAD,7,677899
IROHA INTERNATIONAL PTE. LTD.,1.28499884,103.84469709,133,NEW BRIDGE ROAD,11,59413
COLD STORAGE SINGAPORE (1983) PTE LTD,1.3646254,103.84767704,316B,ANG MO KIO STREET 31,11,563316
SHENG SIONG SUPERMARKET PTE LTD,1.32463573,103.93106884,209,NEW UPPER CHANGI ROAD,631,460209
PRIME SUPERMARKET LIMITED,1.43998365,103.80129311,678,WOODLANDS AVENUE 6,716,730678
ARCHANA SUPERMARKET PTE. LTD.,1.32048426,103.72672284,1,JALAN PAPAN,29,619392
CUTECH GREEN VENTURES PTE. LTD.,1.45334362,103.7956824,10,WOODLANDS INDUSTRIAL PARK E1,,757733
SHENG SIONG SUPERMARKET PTE LTD,1.43109807,103.79850763,573,WOODLANDS DRIVE 16,1,730573
COLD STORAGE SINGAPORE (1983) PTE LTD,1.30523472,103.90501493,112,EAST COAST ROAD,12,428802
CULINA PTE LTD,1.30417512,103.80952614,8,DEMPSEY ROAD,13,247696
COLD STORAGE SINGAPORE (1983) PTE LTD,1.28692006,103.8186736,86,REDHILL CLOSE,610,150086
NG TOH TET,1.35151847,103.71949649,442,JURONG WEST AVENUE 1,756,640442
TANESEI RETAILING PTE. LTD.,1.35236113,103.94378482,2,TAMPINES CENTRAL 5,6,529509
NTUC FAIRPRICE CO-OPERATIVE LTD,1.3736183,103.88574886,682,HOUGANG AVENUE 4,310,530682
COLD STORAGE SINGAPORE (1983) PTE LTD,1.33362232,103.85097786,181,LORONG 4 TOA PAYOH,602,310181
NTUC FAIRPRICE CO-OPERATIVE LTD,1.43106395,103.79045409,570B,WOODLANDS AVENUE 1,6,732570
NTUC FAIRPRICE CO-OPERATIVE LTD,1.42799996,103.83614204,1,NORTHPOINT DRIVE,103,768019
NTUC FAIRPRICE CO-OPERATIVE LTD,1.30849289,103.78459811,29A,GHIM MOH LINK,1,271029
NTUC FAIRPRICE CO-OPERATIVE LTD,1.35267232,103.94438798,4,TAMPINES CENTRAL 5,12,529510
U STARS PTE. LTD.,1.41517634,103.83983039,507,YISHUN AVENUE 4,9,760507
L M MEAT PTE. LTD.,1.32365173,103.92210296,750,CHAI CHEE ROAD,10,469000
TANESEI TRADING PTE. LTD.,1.30684883,103.78821454,1,VISTA EXCHANGE GREEN,28,138617
COLD STORAGE SINGAPORE (1983) PTE LTD,1.33667573,103.78370915,896,DUNEARN ROAD,1,589472
SHENG SIONG SUPERMARKET PTE LTD,1.3473718,103.74369812,154A,BUKIT BATOK WEST AVENUE 8,1,651154
NTUC FAIRPRICE CO-OPERATIVE LTD,1.37834971,103.76274118,17,PETIR ROAD,67,678278
NTUC FAIRPRICE CO-OPERATIVE LTD,1.34888844,103.84969199,510,BISHAN STREET 13,520,570510
SONG FISH DEALER PTE LTD,1.32365173,103.92210296,750,CHAI CHEE ROAD,9,469000
SHENG SIONG SUPERMARKET PTE LTD,1.30203803,103.79802175,88,TANGLIN HALT ROAD,10,141088
OH BENG GUAN,1.36393821,103.75189601,395A,BUKIT BATOK WEST AVENUE 5,10,651395
COLD STORAGE SINGAPORE (1983) PTE LTD,1.34239284,103.77625054,144,UPPER BUKIT TIMAH ROAD,1,588177
ISETAN (SINGAPORE) LIMITED?,1.33402529,103.74258602,3,GATEWAY DRIVE,1,608532
COLD STORAGE SINGAPORE (1983) PTE LTD,1.34159108,103.69702008,638,JURONG WEST STREET 61,1,640638
LITTLE FARMS PTE. LTD.,1.27672493,103.8451554,7,WALLICH STREET,6,78884
NTUC FAIRPRICE CO-OPERATIVE LTD,1.33740471,103.92177474,745,BEDOK RESERVOIR ROAD,3015,470745
CHUA & NG PTE. LTD.,1.33205095,103.91414508,632,BEDOK RESERVOIR ROAD,824,470632
PRIME SUPERMARKET LIMITED,1.34872643,103.69829201,763,JURONG WEST STREET 75,1,640763
NTUC FAIRPRICE CO-OPERATIVE LTD,1.45384519,103.81954335,511,CANBERRA ROAD,3,750511
NTUC FAIRPRICE CO-OPERATIVE LTD,1.35023943,103.84847763,9,BISHAN PLACE,20,579837
NTUC FAIRPRICE CO-OPERATIVE LTD,1.37231186,103.89366162,90,HOUGANG AVENUE 10,7,538766
NTUC FAIRPRICE CO-OPERATIVE LTD,1.35757558,103.88403846,202,HOUGANG STREET 21,0,530202
NTUC FAIRPRICE CO-OPERATIVE LTD,1.37566728,103.87945026,1,HOUGANG STREET 91,1,538692
NTUC FAIRPRICE CO-OPERATIVE LTD,1.37244981,103.9497157,1,PASIR RIS CENTRAL STREET 3,10,518457
SHENG SIONG SUPERMARKET PTE LTD,1.36700054,103.96461778,258,PASIR RIS STREET 21,10,510258
HAO MART PTE. LTD.,1.33545353,103.86338798,120,POTONG PASIR AVENUE 1,812,350120
LOCH GROCER PTE. LTD.,1.34995541,103.71770481,503,JURONG WEST AVENUE 1,847,640503
COLD STORAGE SINGAPORE (1983) PTE LTD,1.45000861,103.81411091,468B,ADMIRALTY DRIVE,29,752468
"TANG KER AN, TIMOTHY",1.32062506,103.93473423,18,BEDOK SOUTH ROAD,67,460018
MM SUNDRY SHOP PTE.LTD.,1.45464655,103.80447674,27,WOODLANDS SECTOR 1,70,738252
COLD STORAGE SINGAPORE (1983) PTE LTD,1.31025542,103.79535044,211,HOLLAND AVENUE,5,278967
TANESEI RETAILING PTE. LTD.,1.30523472,103.90501493,112,EAST COAST ROAD,9,428802
FORTUNE SUPERMARKET PTE. LTD.,1.44834154,103.80105715,780,WOODLANDS CRESCENT,1,730780
TASTE (SINGAPORE) PRIVATE LIMITED,1.31052979,103.79610521,118,HOLLAND AVENUE,1/10,278997
CAVEMEN PTE. LTD.,1.32696541,103.84367424,1,JALAN DUSUN,9/10,329363
SHENG SIONG SUPERMARKET PTE LTD,1.40371939,103.90613801,301,PUNGGOL CENTRAL,1,820301
COLD STORAGE SINGAPORE (1983) PTE LTD,1.32257318,103.81424555,501,BUKIT TIMAH ROAD,2,259760
PRIME SUPERMARKET (1996) PTE LTD,1.37743963,103.74438323,253,CHOA CHU KANG AVENUE 1,7/10,680253
KADER HASNA MARICAN,1.33314578,103.69524811,17,KIAN TECK LANE,65,627851
SHENG SIONG SUPERMARKET PTE LTD,1.38824022,103.76957539,547,SEGAR ROAD,6,670547
SHENG SIONG SUPERMARKET PTE LTD,1.39779874,103.88169881,473,FERNVALE STREET,6,790473
COLD STORAGE SINGAPORE (1983) PTE LTD,1.28263438,103.82559576,26,JALAN MEMBINA,7,161026
COLD STORAGE SINGAPORE (1983) PTE LTD,1.3626745,103.76417292,4,HILLVIEW RISE,7,667979
ANG MO SUPERMARKET PTE LTD,1.39946117,103.9160545,639,PUNGGOL DRIVE,1,820639
SHENG SIONG SUPERMARKET PTE LTD,1.33824203,103.92330394,739A,BEDOK RESERVOIR ROAD,1,471739
COLD STORAGE SINGAPORE (1983) PTE LTD,1.36899801,103.95864765,440,PASIR RIS DRIVE 4,1,510440
COLD STORAGE SINGAPORE (1983) PTE LTD,1.37904776,103.77293749,256,BANGKIT ROAD,69,670256
SHENG SIONG SUPERMARKET PTE LTD,1.38400582,103.77102961,446,FAJAR ROAD,1,670446
U STARS SUPERMARKET PTE. LTD.,1.40322712,103.89538703,218,SUMANG WALK,1,820218
COLD STORAGE SINGAPORE (1983) PTE LTD,1.30766862,103.8281644,442,ORCHARD ROAD,1/11,238879
HAO MART PTE. LTD.,1.30706068,103.92376973,15,SIGLAP ROAD,1,448912
SHENG SIONG SUPERMARKET PTE LTD,1.37789203,103.85641198,2,ANG MO KIO DRIVE,12,567720
TOH GUAN MINI MART PTE LTD,1.33832658,103.75353612,19,TOH GUAN ROAD EAST,65,608568
COLD STORAGE SINGAPORE (1983) PTE LTD,1.40053114,103.91053693,622D,PUNGGOL CENTRAL,6,824622
COLD STORAGE SINGAPORE (1983) PTE LTD,1.31654468,103.89428939,845,GEYLANG ROAD,8,400845
COLD STORAGE SINGAPORE (1983) PTE LTD,1.37805614,103.7389318,475,CHOA CHU KANG AVENUE 3,1,680475
HAO MART PTE. LTD.,1.45026202,103.82253472,505,CANBERRA LINK,1,750505
SHENG SIONG SUPERMARKET PTE LTD,1.3077851,103.85701099,1,JALAN BERSEH,2,209037
VINAYAK TRADERS PTE. LTD.,1.31923811,103.73288248,27,PENJURU WALK,8/9,608538
COLD STORAGE SINGAPORE (1983) PTE LTD,1.40566048,103.91199128,671,EDGEFIELD PLAINS,1,820671
PRIME SUPERMARKET (1996) PTE LTD,1.34676466,103.67881814,50,NANYANG AVENUE,1/26,639798
COLD STORAGE SINGAPORE (1983) PTE LTD,1.3127533,103.92365787,2,FIRST STREET,5/16,458278
MOHAMAD DAMAR HULAN BIN OSMAN,1.31714974,103.90396519,212,CHANGI ROAD,,419735
THE FOODSPREE PTE LTD,1.31290446,103.89971125,162,JOO CHIAT ROAD,1,427437
AL MARCHE PTE LTD,1.28076944,103.85265857,2,MARINA BOULEVARD,5,18987
COLD STORAGE SINGAPORE (1983) PTE LTD,1.3308174,103.79569236,1,FIFTH AVENUE,5,268802
SONG FISH DEALER PTE LTD,1.42969848,103.8357765,930,YISHUN AVENUE 2,5,769098
U STARS PTE. LTD.,1.37405797,103.74616008,810,CHOA CHU KANG AVENUE 7,1,680810
SHENG SIONG SUPERMARKET PTE LTD,1.43303198,103.84160083,18,YISHUN AVENUE 9,6/10,768897
MAHOTA FOOD PTE. LTD.,1.35236113,103.94378482,2,TAMPINES CENTRAL 5,7,529509
SONG FISH DEALER PTE LTD,1.35236113,103.94378482,2,TAMPINES CENTRAL 5,8,529509
SHENG SIONG SUPERMARKET PTE LTD,1.30811887,103.78604939,25,GHIM MOH LINK,11,270025
ISYMI PTE LTD,1.35530903,103.88785719,183,JALAN PELIKAT,12,537643
THE SEAFOOD MARKET PLACE (BY SONG FISH) PTE. LTD.,1.31469214,103.89448053,11,TANJONG KATONG ROAD,15,437157
THE ALASKA GUYS PTE. LTD.,1.31212248,103.91118599,201,TELOK KURAU ROAD,5,423910
COLD STORAGE SINGAPORE (1983) PTE LTD,1.44053815,103.80097759,70,WOODLANDS AVENUE 7,5,738344
SWISS BUTCHERY PTE LTD,1.30561167,103.82296295,56,TANGLIN ROAD,2,247964
CP MANAGEMENT SERVICES PRIVATE LIMITED,1.32674394,104.00357846,80,TANAH MERAH COAST ROAD,2,498820
COLD STORAGE SINGAPORE (1983) PTE LTD,1.30197805,103.8397589,176,ORCHARD ROAD,9/11,238843
COLD STORAGE SINGAPORE (1983) PTE LTD,1.33142686,103.94825706,348,BEDOK ROAD,1,469560
HONG HENG SENG,1.28119738,103.84343733,5,BANDA STREET,92,50005
COLD STORAGE SINGAPORE (1983) PTE LTD,1.33306648,103.93109139,509,BEDOK NORTH STREET 3,121,460509
SHENG SIONG SUPERMARKET PTE LTD,1.42750548,103.83712529,925,YISHUN CENTRAL 1,211,760925
COLD STORAGE SINGAPORE (1983) PTE LTD,1.34669905,103.7572767,284,BUKIT BATOK EAST AVENUE 3,251,650284
COLD STORAGE SINGAPORE (1983) PTE LTD,1.24715041,103.83955501,1,COVE AVENUE,,98537
L M MEAT PTE. LTD.,1.32042968,103.84389213,10,SINARAN DRIVE,55,307506
FISHOP PTE. LTD.,1.28861469,103.80500997,370,ALEXANDRA ROAD,58,159953
COLD STORAGE SINGAPORE (1983) PTE LTD,1.35831705,103.74957987,376,BUKIT BATOK STREET 31,116,650376
LAURELS FOODS SUPPLIERS PTE LTD,1.32044171,103.77897247,2,PANDAN VALLEY,204,597626
KEK HONG HENG,1.31800981,103.73194891,23,PENJURU WALK,81,608537
LIM KING CHEW,1.36271446,103.89398051,6,HOUGANG AVENUE 3,82,530006
SHENG SIONG SUPERMARKET PTE LTD,1.4160188,103.83500077,845,YISHUN STREET 81,184,760845
L M MEAT PTE. LTD.,1.30358269,103.76528452,154,WEST COAST ROAD,14,127371
SHENG SIONG SUPERMARKET PTE LTD,1.30973331,103.7686373,420A,CLEMENTI AVENUE 1,1,121420
COLD STORAGE SINGAPORE (1983) PTE LTD,1.38085035,103.8793091,982,BUANGKOK CRESCENT,1,530982
COLD STORAGE SINGAPORE (1983) PTE LTD,1.31008119,103.7885329,21,GHIM MOH ROAD,177,270021
EN FROZEN PTE LTD,1.31672515,103.89797742,1,GEYLANG SERAI,198,402001
COLD STORAGE SINGAPORE (1983) PTE LTD,1.43611425,103.83760524,293,YISHUN STREET 22,261,760293
COLD STORAGE SINGAPORE (1983) PTE LTD,1.26206336,103.81862559,1,MARITIME SQUARE,,99253
GURU'S MARKETING PTE. LTD.,1.31923811,103.73288248,27,PENJURU WALK,15,608538
U STARS SUPERMARKET PTE. LTD.,1.31770282,103.76907673,345,CLEMENTI AVENUE 5,78,120345
COLD STORAGE SINGAPORE (1983) PTE LTD,1.30119131,103.90511359,80,MARINE PARADE ROAD,84,449269
COLD STORAGE SINGAPORE (1983) PTE LTD,1.32000041,103.88736307,118,ALJUNIED AVENUE 2,100,380118
ONE EIGHT SHOP PTE. LTD.,1.33658465,103.73762331,104,JURONG EAST STREET 13,110,600104
COLD STORAGE SINGAPORE (1983) PTE LTD,1.43061828,103.82876299,102,YISHUN AVENUE 5,125,760102
COLD STORAGE SINGAPORE (1983) PTE LTD,1.27779539,103.8193413,8,TELOK BLANGAH CRESCENT,171,90008
PRIME SUPERMARKET LIMITED,1.34857537,103.74270864,159,BUKIT BATOK STREET 11,178,650159
ANG MO SUPERMARKET PTE LTD,1.37170343,103.87993899,642,HOUGANG AVENUE 8,197,530642
SHENG SIONG SUPERMARKET PTE LTD,1.43150527,103.77351567,301,WOODLANDS STREET 31,217,730301
SHAHUL HAMEED S/O ABDUSALAM,1.34753519,103.95170278,280,TAMPINES STREET 22,244,520280
SHENG SIONG SUPERMARKET PTE LTD,1.36968625,103.94792243,527D,PASIR RIS STREET 51,1,514527
COLD STORAGE SINGAPORE (1983) PTE LTD,1.3350243,103.74663825,2,JURONG EAST STREET 21,100,609601
SHENG SIONG SUPERMARKET PTE LTD,1.3390448,103.85554107,4,LORONG 7 TOA PAYOH,107,310004
MCP FAIRMART PTE LTD,1.33233468,103.93805129,89,BEDOK NORTH STREET 4,107,460089
HAO MART PTE. LTD.,1.35998567,103.95824766,487B,TAMPINES STREET 45,123,521487
COLD STORAGE SINGAPORE (1983) PTE LTD,1.3298722,103.90192975,306,UBI AVENUE 1,185,400306
COLD STORAGE SINGAPORE (1983) PTE LTD,1.35323164,103.87147286,266,SERANGOON CENTRAL DRIVE,255,550266
COLD STORAGE SINGAPORE (1983) PTE LTD,1.3056057,103.91537608,56,MARINE TERRACE,259,440056
PRIME SUPERMARKET (1996) PTE LTD,1.38079049,103.75195442,142,TECK WHYE LANE,281,680142
PRIME SUPERMARKET LIMITED,1.34201783,103.69148312,962,JURONG WEST STREET 91,300,640962
PRIME SUPERMARKET (1996) PTE LTD,1.32062506,103.93473423,18,BEDOK SOUTH ROAD,87,460018
SHENG SIONG SUPERMARKET PTE LTD,1.37829768,103.75407141,18,TECK WHYE LANE,95,680018
TEO BOBBY,1.35367103,103.87075683,253,SERANGOON CENTRAL DRIVE,241,550253
SHENG SIONG SUPERMARKET PTE LTD,1.32918106,103.88824844,18B,CIRCUIT ROAD,260,372018
SHENG SIONG SUPERMARKET PTE LTD,1.32161904,103.85938273,108,MCNAIR ROAD,295,321108
SHENG SIONG SUPERMARKET PTE LTD,1.33143369,103.93686541,115,BEDOK NORTH ROAD,319,460115
HAO MART PTE. LTD.,1.32471581,103.85775288,74,WHAMPOA DRIVE,332,320074
U STARS PTE. LTD.,1.37754384,103.74970004,817,KEAT HONG LINK,14,680817
ISETAN (SINGAPORE) LIMITED?,1.30580979,103.83150733,350,ORCHARD ROAD,0,238868
COLD STORAGE SINGAPORE (1983) PTE LTD,1.30176131,103.76936939,101,CLEMENTI ROAD,1,129787
TAN CHUAN BOON,1.36620943,103.8951449,309,HOUGANG AVENUE 5,293,530309
MCP FAIRMART PTE LTD,1.33375343,103.73937139,135,JURONG GATEWAY ROAD,317,600135
COLD STORAGE SINGAPORE (1983) PTE LTD,1.31733464,103.84346319,101,THOMSON ROAD,52,307591
KINGSMART PTE. LTD.,1.31621042,103.73252715,30,PENJURU PLACE,6/7,608557
AP HOUSE PTE. LTD.,1.2783073,103.85079518,12,MARINA VIEW,6/8,18961
SHENG SIONG SUPERMARKET PTE LTD,1.35184498,103.83605365,200,UPPER THOMSON ROAD,1,574424
PHANG NEE ENTERPRISE PTE. LTD.,1.32078791,103.72975134,2D,JALAN PAPAN,4,619415
CHENNAI TRADING & SUPERMART PTE. LTD.,1.32048426,103.72672284,1,JALAN PAPAN,35,619392
COLD STORAGE SINGAPORE (1983) PTE LTD,1.39209415,103.89498004,1,SENGKANG SQUARE,25,545078
COLD STORAGE SINGAPORE (1983) PTE LTD,1.30242418,103.83467613,391A,ORCHARD ROAD,1,238873
THE BUTCHER (SINGAPORE) PTE. LTD.,1.30119131,103.90511359,80,MARINE PARADE ROAD,83B,449269
SHENG SIONG SUPERMARKET PTE LTD,1.45074973,103.79684652,200,WOODLANDS INDUSTRIAL PARK E7,30,757177
MAHOTA FOOD PTE. LTD.,1.30832701,103.86200588,809,FRENCH ROAD,31,200809
SHENG SIONG SUPERMARKET PTE LTD,1.28708279,103.84158012,52,CHIN SWEE ROAD,25,160052
SONG FISH DEALER PTE LTD,1.33983015,103.70646089,1,JURONG WEST CENTRAL 2,26,648886
SHENG SIONG SUPERMARKET PTE LTD,1.29531967,103.80975859,85,DAWSON ROAD,1,141085
COLD STORAGE SINGAPORE (1983) PTE LTD,1.29389359,103.85311991,252,NORTH BRIDGE ROAD,1,179103
TEO BOBBY,1.32476041,103.92437024,29,CHAI CHEE AVENUE,62,460029
COLD STORAGE SINGAPORE (1983) PTE LTD,1.32144769,103.95541947,20,EASTWOOD ROAD,7/9,486442
FOUR SEASONS ORGANIC MARKET PTE. LTD.,1.30119131,103.90511359,80,MARINE PARADE ROAD,83A,449269
SHENG SIONG SUPERMARKET PTE LTD,1.35239358,103.71575951,544,JURONG WEST STREET 42,97/99,640544
HAO MART PTE. LTD.,1.35803524,103.84820849,222,BISHAN STREET 23,K1,570222
L M MEAT PTE. LTD.,1.33432515,103.96238931,5,CHANGI BUSINESS PARK CENTRAL 1,23,486038
COLD STORAGE SINGAPORE (1983) PTE LTD,1.44176715,103.82449508,604,SEMBAWANG ROAD,25,758459
SONG FISH DEALER PTE LTD,1.28499884,103.84469709,133,NEW BRIDGE ROAD,26,59413
ANG KEN CHUA,1.38062798,103.74152011,410,CHOA CHU KANG AVENUE 3,341,680410
HAO MART PTE. LTD.,1.33177302,103.92423646,537,BEDOK NORTH STREET 3,555,460537
GW TRADER PTE. LTD.,1.41833138,103.89644789,8,SELETAR NORTH LINK,3,797455
SHENG SIONG SUPERMARKET PTE LTD,1.41081926,103.90037168,312A,SUMANG LINK,4,821312
SHENG SIONG SUPERMARKET PTE LTD,1.31427861,103.77135057,352,CLEMENTI AVENUE 2,91&99,120352
VINAYAK TRADERS PTE. LTD.,1.32048426,103.72672284,1,JALAN PAPAN,33,619392
AJMAL TRADE MART PTE. LTD.,1.40631205,103.76056172,23,MANDAI ESTATE,21,729937
PRIME SUPERMARKET LIMITED,1.35894637,103.75036581,373,BUKIT BATOK STREET 31,248,650373
COLD STORAGE SINGAPORE (1983) PTE LTD,1.3721017,103.9319999,21,TAMPINES NORTH DRIVE 2,,528765
COLD STORAGE SINGAPORE (1983) PTE LTD,1.33211277,103.85737808,260,KIM KEAT AVENUE,1,310260
NTUC FAIRPRICE CO-OPERATIVE LTD,1.29090918,103.80310764,170,STIRLING ROAD,1147,140170
LOH NYEN YIU,1.30275122,103.86516365,5001,BEACH ROAD,64,199588
ARCHANA PROVISION STORES PTE. LTD,1.31923811,103.73288248,27,PENJURU WALK,6/7,608538
THNG SAIK MONG,1.32212394,103.77026591,108,CLEMENTI STREET 11,K1,120108
SHENG SIONG SUPERMARKET PTE LTD,1.31923811,103.73288248,27,PENJURU WALK,24,608538
SUN TRG & CON PTE LTD,1.45132505,103.79109518,280,WOODLANDS INDUSTRIAL PARK E5,24,757322
COLD STORAGE SINGAPORE (1983) PTE LTD,1.36645363,103.9645985,259,PASIR RIS STREET 21,27,510259
COLD STORAGE SINGAPORE (1983) PTE LTD,1.37924529,103.88783203,21,HOUGANG STREET 51,52,538719
HAO MART PTE. LTD.,1.31179545,103.93689452,54,BAYSHORE ROAD,7/8,469979
U STARS SUPERMARKET PTE. LTD.,1.38977025,103.89278716,215C,COMPASSVALE DRIVE,1,543215
PRIME SUPERMARKET (1996) PTE LTD,1.37368393,103.87141698,542B,SERANGOON NORTH AVENUE 3,1,552542
COLD STORAGE SINGAPORE (1983) PTE LTD,1.41738337,103.83297991,201,YISHUN AVENUE 2,3,769092
COLD STORAGE SINGAPORE (1983) PTE LTD,1.4456229,103.798141,768,WOODLANDS AVENUE 6,34,730768
NG CHAI SENG,1.27392941,103.82531077,109,BUKIT PURMEI ROAD,155,90109
NTUC FAIRPRICE CO-OPERATIVE LTD,1.28499884,103.84469709,133,NEW BRIDGE ROAD,1,59413
U STARS SUPERMARKET PTE. LTD.,1.39684979,103.88924676,330,ANCHORVALE STREET,1,540330
PHAN NEE INVESTMENTS (S) PTE LTD,1.44518329,103.83796323,2C,YISHUN AVENUE 7,3,768930
COLD STORAGE SINGAPORE (1983) PTE LTD,1.35436494,103.96004219,9,TAMPINES STREET 32,30,529286
GURU'S MARKETING PTE. LTD.,1.32048426,103.72672284,1,JALAN PAPAN,31,619392
SIVAMANI MINIMART PTE LTD,1.3388823,103.88610926,141,UPPER PAYA LEBAR ROAD,,534846
ALTERNATIVE SELECTION PTE. LTD.,1.33661475,103.78696922,29,BINJAI PARK,,589831
AJMAL TRADE MART PTE. LTD.,1.43069359,103.7592373,12,KRANJI ROAD,,739522
BANGLADESH SUPER MARKET PTE. LTD.,1.45343693,103.83252637,1024,SEMBAWANG ROAD,,758498
KAVI TRADERS PTE. LTD.,1.31332235,103.62791699,69R,TUAS SOUTH AVENUE 1,2,639926
COLD STORAGE SINGAPORE (1983) PTE LTD,1.44275332,103.79054802,883,WOODLANDS STREET 82,498,730883
AJMAL SUPER MART PTE. LTD.,1.31396452,103.62576466,70,TUAS SOUTH AVENUE 1,40,637285
ZAC MEAT & POULTRY PTE LTD,1.31574933,103.92585703,1B,FIGARO STREET,,458322
PHAN NEE TRADING LLP,1.46138854,103.81811128,49,ADMIRALTY ROAD WEST,,757444
BISMILLAH MINIMART PTE. LTD.,1.40754324,103.75809498,32,MANDAI ESTATE,2,729939
COLD STORAGE SINGAPORE (1983) PTE LTD,1.42489932,103.84724979,418,YISHUN AVENUE 11,433,760418
PRIME SUPERMARKET (1996) PTE LTD,1.3520906,103.8793146,159A,HOUGANG STREET 11,1,531159
COLD STORAGE SINGAPORE (1983) PTE LTD,1.37423951,103.83948919,161,ANG MO KIO AVENUE 4,504,560161
HAO MART PTE. LTD.,1.31346904,103.87700475,32,LORONG 11 GEYLANG,,388724
PRB TRADING PTE. LTD.,1.31208877,103.87738927,230,GEYLANG ROAD,,389290
I-TEC SUPERMART PTE LTD,1.31328862,103.88515315,498/500,GEYLANG ROAD,,389456
SARATHI STORES PTE LTD,1.33748492,103.88700417,91,UPPER PAYA LEBAR ROAD,,534821
NPS IMPEX PTE. LTD,1.29895147,103.62751791,21,TUAS VIEW SQUARE,,637640
COLD STORAGE SINGAPORE (1983) PTE LTD,1.35011243,103.7245987,492,JURONG WEST STREET 41,,640492
LABIBA ENTERPRISE PTE. LTD.,1.39657416,103.87285158,249,JALAN KAYU,,799473
COLD STORAGE SINGAPORE (1983) PTE LTD,1.38199703,103.89703108,266,COMPASSVALE BOW,2,540266
YS LOGISTICS (S) PTE. LTD.,1.30859346,103.72231684,15,JALAN TEPONG,2,619336
FORTUNE SUPERMARKET PTE. LTD.,1.45551208,103.81454029,463,SEMBAWANG DRIVE,2,750463
HAO MART PTE. LTD.,1.37343025,103.77392409,205,PETIR ROAD,595,670205
HAO MART PTE. LTD.,1.31935027,103.94363236,69,BEDOK SOUTH AVENUE 3,484,460069
PRIME SUPERMARKET LIMITED,1.39484816,103.89604227,263,COMPASSVALE STREET,1,540263
AZ SUPERMART PTE. LTD.,1.33809674,103.90994667,21,KAKI BUKIT AVENUE 3,,415920
SADIA SUPERMARKET & TRADING (S) PTE. LTD.,1.31069429,103.63019002,14,TECH PARK CRESCENT,2,638118
COLD STORAGE SINGAPORE (1983) PTE LTD,1.45273623,103.81724928,406A,SEMBAWANG DRIVE,2,751406
PRIME SUPERMARKET LIMITED,1.39652618,103.90885077,108,PUNGGOL FIELD,2,820108
COLD STORAGE SINGAPORE (1983) PTE LTD,1.31617743,103.83781498,36A,DUNEARN ROAD,44,309426
TAN PAK NANG,1.33312324,103.8788419,387,UPPER ALJUNIED ROAD,,367872
GOWRI'S GLOBAL MARKETING PTE. LTD.,1.41072219,103.76839597,460,MANDAI ROAD,,729760
COLD STORAGE SINGAPORE (1983) PTE LTD,1.38358044,103.77076831,445,FAJAR ROAD,536,670445
PRIME SUPERMARKET (1996) PTE LTD,1.42539842,103.83325904,761,YISHUN STREET 72,348,760761
SHENG SIONG SUPERMARKET PTE LTD,1.35590219,103.94591219,506,TAMPINES CENTRAL 1,361,520506
COLD STORAGE SINGAPORE (1983) PTE LTD,1.37454929,103.93708818,776,PASIR RIS STREET 71,412,510776
NG LIAN TEE,1.33166478,103.8070338,7,GREENDALE AVENUE,,289504
YEO HOCK HENG,1.31357605,103.8818778,5,ALJUNIED ROAD,,389797
FOODIE MARKET PLACE PTE. LTD.,1.30608637,103.89614964,313,TANJONG KATONG ROAD,,437096
DE ESPERTO MINIMART PTE. LTD.,1.45122064,103.79785342,190,WOODLANDS INDUSTRIAL PARK E7,,757178
PRIME SUPERMARKET LIMITED,1.3232896,103.92414964,25A,CHAI CHEE ROAD,459,461025
D-RON INVESTMENTS PTE. LTD.,1.4169078,103.89601877,2,SELETAR NORTH LINK,38,797601
COLD STORAGE SINGAPORE (1983) PTE LTD,1.30756237,103.8293522,1,CLAYMORE DRIVE,41,229594
HAO MART PTE. LTD.,1.37307947,103.82963087,16,JALAN KURAS,,577729
SHENG SIONG SUPERMARKET PTE LTD,1.34878489,103.70341566,7,JURONG WEST AVENUE 5,,649486
COLD STORAGE SINGAPORE (1983) PTE LTD,1.36012371,103.76754239,464,UPPER BUKIT TIMAH ROAD,,678077
BALASUBRAMANIYAN KANNADASAN,1.43594536,103.75400843,257,KRANJI ROAD,,739503
SHAFEN SUPERMARKET & TRADING (S) PTE. LTD.,1.33641798,103.75180739,18,TOH GUAN ROAD EAST,2,608596
MALAR MARKETING PTE. LTD.,1.3133581,103.627437,69,TUAS SOUTH AVENUE 1,2,637589
GOWRI'S GLOBAL MARKETING PTE. LTD.,1.32888601,103.67712999,555,UPPER JURONG ROAD,2,638368
SHENG SIONG SUPERMARKET PTE LTD,1.3324023,103.9255006,539A,BEDOK NORTH STREET 3,477,461539
COLD STORAGE SINGAPORE (1983) PTE LTD,1.34560771,103.88269585,2,JALAN LOKAM,37,537846
SHENG SIONG SUPERMARKET PTE LTD,1.31272055,103.8786415,301,GEYLANG ROAD,,389344
TUAS SOUTH MINIMART PTE. LTD.,1.27067712,103.6361448,6,TUAS SOUTH STREET 15,,636906
U STARS SUPERMARKET PTE. LTD.,1.40541354,103.8968239,261,PUNGGOL WAY,2,820261
SONG FISH DEALER PTE LTD,1.33320022,103.74317043,50,JURONG GATEWAY ROAD,43,608549
COLD STORAGE SINGAPORE (1983) PTE LTD,1.28355873,103.85850575,2,BAYFRONT AVENUE,46,18972
